{
"type": "FeatureCollection",
"name": "hamburg_doctors",
"crs": { "type": "name", "properties": { "name": "urn:ogc:def:crs:OGC:1.3:CRS84" } },
"features": [
{ "type": "Feature", "properties": { "osm_id": "69450386", "code": 2120, "fclass": "doctors", "name": "Ärztehaus" }, "geometry": { "type": "Point", "coordinates": [ 10.1629511, 53.6481069 ] } },
{ "type": "Feature", "properties": { "osm_id": "73621281", "code": 2120, "fclass": "doctors", "name": "Gemeinschaftspraxis Rosengarten" }, "geometry": { "type": "Point", "coordinates": [ 9.7057217, 53.5816327 ] } },
{ "type": "Feature", "properties": { "osm_id": "269231702", "code": 2110, "fclass": "hospital", "name": "Albertinen Krankenhaus" }, "geometry": { "type": "Point", "coordinates": [ 9.9052693, 53.6311975 ] } },
{ "type": "Feature", "properties": { "osm_id": "276533909", "code": 2120, "fclass": "doctors", "name": null }, "geometry": { "type": "Point", "coordinates": [ 10.1221631, 53.6494903 ] } },
{ "type": "Feature", "properties": { "osm_id": "277307750", "code": 2120, "fclass": "doctors", "name": null }, "geometry": { "type": "Point", "coordinates": [ 10.0850339, 53.641073 ] } },
{ "type": "Feature", "properties": { "osm_id": "277790181", "code": 2120, "fclass": "doctors", "name": "Silke Engelder" }, "geometry": { "type": "Point", "coordinates": [ 10.0423462, 53.5974792 ] } },
{ "type": "Feature", "properties": { "osm_id": "277790185", "code": 2120, "fclass": "doctors", "name": "K.-J. Winkelmann" }, "geometry": { "type": "Point", "coordinates": [ 10.0425354, 53.5971665 ] } },
{ "type": "Feature", "properties": { "osm_id": "277790188", "code": 2120, "fclass": "doctors", "name": "H. Keyany" }, "geometry": { "type": "Point", "coordinates": [ 10.0428576, 53.5967079 ] } },
{ "type": "Feature", "properties": { "osm_id": "277790189", "code": 2120, "fclass": "doctors", "name": "Bernhard Nast" }, "geometry": { "type": "Point", "coordinates": [ 10.0428861, 53.5966557 ] } },
{ "type": "Feature", "properties": { "osm_id": "316973426", "code": 2120, "fclass": "doctors", "name": null }, "geometry": { "type": "Point", "coordinates": [ 9.8490943, 53.5882162 ] } },
{ "type": "Feature", "properties": { "osm_id": "316973427", "code": 2120, "fclass": "doctors", "name": null }, "geometry": { "type": "Point", "coordinates": [ 9.8495027, 53.5880973 ] } },
{ "type": "Feature", "properties": { "osm_id": "316981937", "code": 2120, "fclass": "doctors", "name": "Dr. med. Mirweys Sina" }, "geometry": { "type": "Point", "coordinates": [ 9.8543904, 53.5842656 ] } },
{ "type": "Feature", "properties": { "osm_id": "370764253", "code": 2120, "fclass": "doctors", "name": "Dr. Weisshuhn \/ Dr. Pencz" }, "geometry": { "type": "Point", "coordinates": [ 10.1086055, 53.6479107 ] } },
{ "type": "Feature", "properties": { "osm_id": "386872637", "code": 2120, "fclass": "doctors", "name": "Drobik" }, "geometry": { "type": "Point", "coordinates": [ 10.043114, 53.5349251 ] } },
{ "type": "Feature", "properties": { "osm_id": "390878856", "code": 2120, "fclass": "doctors", "name": "Ärztezentrum Struenseehaus" }, "geometry": { "type": "Point", "coordinates": [ 9.9437175, 53.5491489 ] } },
{ "type": "Feature", "properties": { "osm_id": "394941154", "code": 2120, "fclass": "doctors", "name": null }, "geometry": { "type": "Point", "coordinates": [ 9.9582998, 53.5750211 ] } },
{ "type": "Feature", "properties": { "osm_id": "397617962", "code": 2120, "fclass": "doctors", "name": "Dr. Andrea Sörens" }, "geometry": { "type": "Point", "coordinates": [ 9.9576653, 53.5726963 ] } },
{ "type": "Feature", "properties": { "osm_id": "400696976", "code": 2120, "fclass": "doctors", "name": "Niels Schlüter" }, "geometry": { "type": "Point", "coordinates": [ 9.8617101, 53.5986382 ] } },
{ "type": "Feature", "properties": { "osm_id": "403783985", "code": 2120, "fclass": "doctors", "name": "Dr. Hella v. Campenhausen" }, "geometry": { "type": "Point", "coordinates": [ 9.9582899, 53.5746151 ] } },
{ "type": "Feature", "properties": { "osm_id": "410213324", "code": 2120, "fclass": "doctors", "name": "Horn-Moll Wendt" }, "geometry": { "type": "Point", "coordinates": [ 10.0395615, 53.5341973 ] } },
{ "type": "Feature", "properties": { "osm_id": "437355081", "code": 2120, "fclass": "doctors", "name": "ICH Grindel" }, "geometry": { "type": "Point", "coordinates": [ 9.9819387, 53.5659024 ] } },
{ "type": "Feature", "properties": { "osm_id": "467064271", "code": 2120, "fclass": "doctors", "name": null }, "geometry": { "type": "Point", "coordinates": [ 10.093689, 53.6552664 ] } },
{ "type": "Feature", "properties": { "osm_id": "559721169", "code": 2120, "fclass": "doctors", "name": "Dr. Stüven" }, "geometry": { "type": "Point", "coordinates": [ 10.1823553, 53.4770981 ] } },
{ "type": "Feature", "properties": { "osm_id": "588652098", "code": 2120, "fclass": "doctors", "name": "Dr. med. Caspar Gleiss" }, "geometry": { "type": "Point", "coordinates": [ 10.0453406, 53.5773804 ] } },
{ "type": "Feature", "properties": { "osm_id": "605051977", "code": 2120, "fclass": "doctors", "name": "Dr. phil.Sönke Jessen.Diehl" }, "geometry": { "type": "Point", "coordinates": [ 10.1103362, 53.653234 ] } },
{ "type": "Feature", "properties": { "osm_id": "606980403", "code": 2120, "fclass": "doctors", "name": "Naturheilpraxis Peer Franke" }, "geometry": { "type": "Point", "coordinates": [ 10.1043178, 53.6493729 ] } },
{ "type": "Feature", "properties": { "osm_id": "610348144", "code": 2120, "fclass": "doctors", "name": "Christine Lesny" }, "geometry": { "type": "Point", "coordinates": [ 10.1060454, 53.6529675 ] } },
{ "type": "Feature", "properties": { "osm_id": "626143003", "code": 2120, "fclass": "doctors", "name": "Dr. Mareike Rosenboom" }, "geometry": { "type": "Point", "coordinates": [ 10.0853016, 53.6615813 ] } },
{ "type": "Feature", "properties": { "osm_id": "666320451", "code": 2120, "fclass": "doctors", "name": "Allgemeinmedizin Saskia Sprenger" }, "geometry": { "type": "Point", "coordinates": [ 10.0800159, 53.641296 ] } },
{ "type": "Feature", "properties": { "osm_id": "674732082", "code": 2120, "fclass": "doctors", "name": "Silke Hantelmann" }, "geometry": { "type": "Point", "coordinates": [ 10.0003492, 53.6786231 ] } },
{ "type": "Feature", "properties": { "osm_id": "701812063", "code": 2120, "fclass": "doctors", "name": "Joachim Homann" }, "geometry": { "type": "Point", "coordinates": [ 10.0008301, 53.6802328 ] } },
{ "type": "Feature", "properties": { "osm_id": "845206191", "code": 2120, "fclass": "doctors", "name": "Dr. med. Albrecht Leopold" }, "geometry": { "type": "Point", "coordinates": [ 9.9622069, 53.4659503 ] } },
{ "type": "Feature", "properties": { "osm_id": "845208299", "code": 2120, "fclass": "doctors", "name": "Dr. med. Genc Shala" }, "geometry": { "type": "Point", "coordinates": [ 9.9632295, 53.4651927 ] } },
{ "type": "Feature", "properties": { "osm_id": "880392215", "code": 2120, "fclass": "doctors", "name": "Kinder-Ärzte" }, "geometry": { "type": "Point", "coordinates": [ 9.9334376, 53.579287 ] } },
{ "type": "Feature", "properties": { "osm_id": "888499911", "code": 2120, "fclass": "doctors", "name": "Arztpraxis Holtz" }, "geometry": { "type": "Point", "coordinates": [ 10.0569399, 53.5643301 ] } },
{ "type": "Feature", "properties": { "osm_id": "888502466", "code": 2120, "fclass": "doctors", "name": "Kinderarzt Kroschke und Klarczyk" }, "geometry": { "type": "Point", "coordinates": [ 10.0565086, 53.5663151 ] } },
{ "type": "Feature", "properties": { "osm_id": "900583022", "code": 2120, "fclass": "doctors", "name": "Hausärztliche Gemeinschaftspraxis Hummelsbütteler Markt" }, "geometry": { "type": "Point", "coordinates": [ 10.0463423, 53.6426086 ] } },
{ "type": "Feature", "properties": { "osm_id": "900583099", "code": 2120, "fclass": "doctors", "name": "Nazeh Mahmoud" }, "geometry": { "type": "Point", "coordinates": [ 10.0464435, 53.6433194 ] } },
{ "type": "Feature", "properties": { "osm_id": "905410530", "code": 2120, "fclass": "doctors", "name": "Geburtshaus Hamburg" }, "geometry": { "type": "Point", "coordinates": [ 9.9336469, 53.5485031 ] } },
{ "type": "Feature", "properties": { "osm_id": "920072143", "code": 2120, "fclass": "doctors", "name": "Dr. Bolm" }, "geometry": { "type": "Point", "coordinates": [ 10.06258, 53.5535581 ] } },
{ "type": "Feature", "properties": { "osm_id": "932156568", "code": 2120, "fclass": "doctors", "name": "Augenarzt Mahmoud Saadat" }, "geometry": { "type": "Point", "coordinates": [ 10.0568405, 53.5667215 ] } },
{ "type": "Feature", "properties": { "osm_id": "960098116", "code": 2120, "fclass": "doctors", "name": "Orthopädie Am Alten Gaswerk - Gemeinschaftspraxis" }, "geometry": { "type": "Point", "coordinates": [ 9.9160504, 53.5637364 ] } },
{ "type": "Feature", "properties": { "osm_id": "983452176", "code": 2120, "fclass": "doctors", "name": "Kinderarzt" }, "geometry": { "type": "Point", "coordinates": [ 9.9974946, 53.6812926 ] } },
{ "type": "Feature", "properties": { "osm_id": "1062269503", "code": 2120, "fclass": "doctors", "name": "Kinderchirurgie" }, "geometry": { "type": "Point", "coordinates": [ 10.0928513, 53.6359949 ] } },
{ "type": "Feature", "properties": { "osm_id": "1069192751", "code": 2120, "fclass": "doctors", "name": "Dr. med Reimar Krüger" }, "geometry": { "type": "Point", "coordinates": [ 10.0857265, 53.6261097 ] } },
{ "type": "Feature", "properties": { "osm_id": "1071981503", "code": 2120, "fclass": "doctors", "name": "Ärztehaus" }, "geometry": { "type": "Point", "coordinates": [ 9.9967172, 53.6816421 ] } },
{ "type": "Feature", "properties": { "osm_id": "1083437798", "code": 2120, "fclass": "doctors", "name": "Zahnarzt Dr. Torsten Ebeling" }, "geometry": { "type": "Point", "coordinates": [ 10.024396, 53.584914 ] } },
{ "type": "Feature", "properties": { "osm_id": "1086276366", "code": 2120, "fclass": "doctors", "name": "Dr. S. Günther" }, "geometry": { "type": "Point", "coordinates": [ 9.9054273, 53.6087269 ] } },
{ "type": "Feature", "properties": { "osm_id": "1133646744", "code": 2120, "fclass": "doctors", "name": "Christoph Müller-Rahmel" }, "geometry": { "type": "Point", "coordinates": [ 10.1841989, 53.6523946 ] } },
{ "type": "Feature", "properties": { "osm_id": "1269116650", "code": 2110, "fclass": "hospital", "name": "Praxisklinik Bergedorf" }, "geometry": { "type": "Point", "coordinates": [ 10.2064905, 53.494167 ] } },
{ "type": "Feature", "properties": { "osm_id": "1337748647", "code": 2120, "fclass": "doctors", "name": "M. Meins" }, "geometry": { "type": "Point", "coordinates": [ 10.1491436, 53.67797 ] } },
{ "type": "Feature", "properties": { "osm_id": "1337748669", "code": 2120, "fclass": "doctors", "name": null }, "geometry": { "type": "Point", "coordinates": [ 10.1492711, 53.6778497 ] } },
{ "type": "Feature", "properties": { "osm_id": "1345120455", "code": 2120, "fclass": "doctors", "name": "Hausarztpraxis Dr. Axt" }, "geometry": { "type": "Point", "coordinates": [ 10.0261048, 53.6746329 ] } },
{ "type": "Feature", "properties": { "osm_id": "1416886329", "code": 2120, "fclass": "doctors", "name": null }, "geometry": { "type": "Point", "coordinates": [ 9.8487277, 53.5984438 ] } },
{ "type": "Feature", "properties": { "osm_id": "1417506594", "code": 2120, "fclass": "doctors", "name": "Julia Berger Psychiater" }, "geometry": { "type": "Point", "coordinates": [ 10.0916088, 53.6532322 ] } },
{ "type": "Feature", "properties": { "osm_id": "1455182317", "code": 2120, "fclass": "doctors", "name": "Medizinisches Zentrum" }, "geometry": { "type": "Point", "coordinates": [ 9.9846139, 53.4593585 ] } },
{ "type": "Feature", "properties": { "osm_id": "1490263364", "code": 2120, "fclass": "doctors", "name": "Neurologie Neuer Wall" }, "geometry": { "type": "Point", "coordinates": [ 9.9911913, 53.5518142 ] } },
{ "type": "Feature", "properties": { "osm_id": "1491747985", "code": 2120, "fclass": "doctors", "name": "Dr. med. Karin Weber" }, "geometry": { "type": "Point", "coordinates": [ 10.149412, 53.6789405 ] } },
{ "type": "Feature", "properties": { "osm_id": "1491747986", "code": 2120, "fclass": "doctors", "name": "Dr. med. Wolfgang Rust" }, "geometry": { "type": "Point", "coordinates": [ 10.1494972, 53.6789749 ] } },
{ "type": "Feature", "properties": { "osm_id": "1491747987", "code": 2120, "fclass": "doctors", "name": "Dr. med. dent. Bernd Dellwig" }, "geometry": { "type": "Point", "coordinates": [ 10.14955, 53.6789443 ] } },
{ "type": "Feature", "properties": { "osm_id": "1491747988", "code": 2120, "fclass": "doctors", "name": "Dr. med. dent. Manfred Kaufmann" }, "geometry": { "type": "Point", "coordinates": [ 10.1494723, 53.6789065 ] } },
{ "type": "Feature", "properties": { "osm_id": "1491747989", "code": 2120, "fclass": "doctors", "name": "Dörte Sefring" }, "geometry": { "type": "Point", "coordinates": [ 10.1493239, 53.678904 ] } },
{ "type": "Feature", "properties": { "osm_id": "1491748076", "code": 2120, "fclass": "doctors", "name": "Susanne Koop" }, "geometry": { "type": "Point", "coordinates": [ 10.1492555, 53.6788812 ] } },
{ "type": "Feature", "properties": { "osm_id": "1491748077", "code": 2120, "fclass": "doctors", "name": "Werner Müller" }, "geometry": { "type": "Point", "coordinates": [ 10.1494836, 53.6789371 ] } },
{ "type": "Feature", "properties": { "osm_id": "1528173385", "code": 2120, "fclass": "doctors", "name": "Urologie Dr. Friedrichs" }, "geometry": { "type": "Point", "coordinates": [ 9.9896973, 53.5577472 ] } },
{ "type": "Feature", "properties": { "osm_id": "1564055724", "code": 2110, "fclass": "hospital", "name": "Fleetinsel Klinik" }, "geometry": { "type": "Point", "coordinates": [ 9.9851133, 53.5484977 ] } },
{ "type": "Feature", "properties": { "osm_id": "1574464373", "code": 2120, "fclass": "doctors", "name": "HNO Praxis im Mercado" }, "geometry": { "type": "Point", "coordinates": [ 9.931508, 53.5528636 ] } },
{ "type": "Feature", "properties": { "osm_id": "1576522488", "code": 2120, "fclass": "doctors", "name": "Allgemeinmedizin Uta Meyer, Dr.Christian Tränkmann" }, "geometry": { "type": "Point", "coordinates": [ 9.9532873, 53.5883457 ] } },
{ "type": "Feature", "properties": { "osm_id": "1576932382", "code": 2120, "fclass": "doctors", "name": "Kinderarzt Dr. Petrick" }, "geometry": { "type": "Point", "coordinates": [ 10.1177386, 53.6077564 ] } },
{ "type": "Feature", "properties": { "osm_id": "1636285301", "code": 2120, "fclass": "doctors", "name": "HNO Rennert & Rüter & Pyttlik" }, "geometry": { "type": "Point", "coordinates": [ 10.0934155, 53.6523162 ] } },
{ "type": "Feature", "properties": { "osm_id": "1648322020", "code": 2120, "fclass": "doctors", "name": "Dr." }, "geometry": { "type": "Point", "coordinates": [ 10.0648483, 53.5601466 ] } },
{ "type": "Feature", "properties": { "osm_id": "1652765427", "code": 2120, "fclass": "doctors", "name": "Dr. med. Becker" }, "geometry": { "type": "Point", "coordinates": [ 10.1494556, 53.678958 ] } },
{ "type": "Feature", "properties": { "osm_id": "1652773489", "code": 2120, "fclass": "doctors", "name": "Dr. Meyer-Hülsmann" }, "geometry": { "type": "Point", "coordinates": [ 9.838325, 53.6008643 ] } },
{ "type": "Feature", "properties": { "osm_id": "1672837453", "code": 2120, "fclass": "doctors", "name": "Hausarztpraxis Dr. med. Stefanie Fix & Torsten Fix" }, "geometry": { "type": "Point", "coordinates": [ 10.1801605, 53.5889299 ] } },
{ "type": "Feature", "properties": { "osm_id": "1767738688", "code": 2120, "fclass": "doctors", "name": "Hausärzte Niendorf" }, "geometry": { "type": "Point", "coordinates": [ 9.94691, 53.6341658 ] } },
{ "type": "Feature", "properties": { "osm_id": "1861988043", "code": 2120, "fclass": "doctors", "name": null }, "geometry": { "type": "Point", "coordinates": [ 9.9480976, 53.6409764 ] } },
{ "type": "Feature", "properties": { "osm_id": "1862001246", "code": 2120, "fclass": "doctors", "name": "Ärztehaus: Kinderarzt, Internisten, Zahnarzt" }, "geometry": { "type": "Point", "coordinates": [ 9.9483821, 53.6404331 ] } },
{ "type": "Feature", "properties": { "osm_id": "1923445798", "code": 2120, "fclass": "doctors", "name": "Dr. med. Sabine Rath und Kathrin Gross" }, "geometry": { "type": "Point", "coordinates": [ 9.8548776, 53.5829486 ] } },
{ "type": "Feature", "properties": { "osm_id": "1923445801", "code": 2120, "fclass": "doctors", "name": "Dr. Kay Steidtmann u. Dr. Andrea Paps" }, "geometry": { "type": "Point", "coordinates": [ 9.8548561, 53.5830123 ] } },
{ "type": "Feature", "properties": { "osm_id": "1923445803", "code": 2120, "fclass": "doctors", "name": "Dr. med. Frank Scharlau" }, "geometry": { "type": "Point", "coordinates": [ 9.8549741, 53.5829774 ] } },
{ "type": "Feature", "properties": { "osm_id": "1923445813", "code": 2120, "fclass": "doctors", "name": "Dr. R. Stühmer" }, "geometry": { "type": "Point", "coordinates": [ 9.8547649, 53.5829137 ] } },
{ "type": "Feature", "properties": { "osm_id": "1923445814", "code": 2120, "fclass": "doctors", "name": "Dr. W-E Garbe" }, "geometry": { "type": "Point", "coordinates": [ 9.8548561, 53.5828883 ] } },
{ "type": "Feature", "properties": { "osm_id": "1926773436", "code": 2120, "fclass": "doctors", "name": "Dr. med Stubbe" }, "geometry": { "type": "Point", "coordinates": [ 9.8887979, 53.4721894 ] } },
{ "type": "Feature", "properties": { "osm_id": "1934912948", "code": 2120, "fclass": "doctors", "name": null }, "geometry": { "type": "Point", "coordinates": [ 9.813095, 53.5642076 ] } },
{ "type": "Feature", "properties": { "osm_id": "1946676141", "code": 2120, "fclass": "doctors", "name": null }, "geometry": { "type": "Point", "coordinates": [ 9.8730478, 53.5927568 ] } },
{ "type": "Feature", "properties": { "osm_id": "1953410142", "code": 2120, "fclass": "doctors", "name": "Dr Nicolaj Witt (Neurologe)" }, "geometry": { "type": "Point", "coordinates": [ 9.9911486, 53.6058784 ] } },
{ "type": "Feature", "properties": { "osm_id": "1974994173", "code": 2120, "fclass": "doctors", "name": "Sanna Rauhala-Parrey" }, "geometry": { "type": "Point", "coordinates": [ 9.9267097, 53.5601059 ] } },
{ "type": "Feature", "properties": { "osm_id": "1988222597", "code": 2120, "fclass": "doctors", "name": "Praxisgemeinschaft Rosenhagen" }, "geometry": { "type": "Point", "coordinates": [ 9.8892352, 53.5596389 ] } },
{ "type": "Feature", "properties": { "osm_id": "1997009823", "code": 2120, "fclass": "doctors", "name": "Haroske" }, "geometry": { "type": "Point", "coordinates": [ 9.8536165, 53.4717877 ] } },
{ "type": "Feature", "properties": { "osm_id": "2074316938", "code": 2120, "fclass": "doctors", "name": "Dr. Oeter" }, "geometry": { "type": "Point", "coordinates": [ 10.0806064, 53.6187931 ] } },
{ "type": "Feature", "properties": { "osm_id": "2089639727", "code": 2120, "fclass": "doctors", "name": "Hausarztpraxis Curslack" }, "geometry": { "type": "Point", "coordinates": [ 10.2307254, 53.4481868 ] } },
{ "type": "Feature", "properties": { "osm_id": "2246200678", "code": 2120, "fclass": "doctors", "name": "Dr. med. Frank Bessenbach" }, "geometry": { "type": "Point", "coordinates": [ 10.1622207, 53.6505377 ] } },
{ "type": "Feature", "properties": { "osm_id": "2246200679", "code": 2120, "fclass": "doctors", "name": "Dr. med. Tatjana Tafese" }, "geometry": { "type": "Point", "coordinates": [ 10.1622474, 53.6505328 ] } },
{ "type": "Feature", "properties": { "osm_id": "2301140870", "code": 2120, "fclass": "doctors", "name": null }, "geometry": { "type": "Point", "coordinates": [ 10.2097402, 53.4884237 ] } },
{ "type": "Feature", "properties": { "osm_id": "2301171929", "code": 2120, "fclass": "doctors", "name": null }, "geometry": { "type": "Point", "coordinates": [ 10.1751532, 53.4832997 ] } },
{ "type": "Feature", "properties": { "osm_id": "2301171930", "code": 2120, "fclass": "doctors", "name": null }, "geometry": { "type": "Point", "coordinates": [ 10.1812122, 53.4892344 ] } },
{ "type": "Feature", "properties": { "osm_id": "2318856809", "code": 2120, "fclass": "doctors", "name": null }, "geometry": { "type": "Point", "coordinates": [ 9.9879934, 53.5416275 ] } },
{ "type": "Feature", "properties": { "osm_id": "2385066601", "code": 2120, "fclass": "doctors", "name": "Augenarzt Dr. med. Werner Ziegon" }, "geometry": { "type": "Point", "coordinates": [ 10.0496387, 53.5873673 ] } },
{ "type": "Feature", "properties": { "osm_id": "2469886267", "code": 2120, "fclass": "doctors", "name": "D. Hanke" }, "geometry": { "type": "Point", "coordinates": [ 9.9608968, 53.5638287 ] } },
{ "type": "Feature", "properties": { "osm_id": "2493862126", "code": 2120, "fclass": "doctors", "name": "HNO-Praxis-Süderelbe" }, "geometry": { "type": "Point", "coordinates": [ 9.8797572, 53.4734698 ] } },
{ "type": "Feature", "properties": { "osm_id": "2538358275", "code": 2120, "fclass": "doctors", "name": "Hans-Werner Wozny" }, "geometry": { "type": "Point", "coordinates": [ 10.0421237, 53.5344156 ] } },
{ "type": "Feature", "properties": { "osm_id": "2540290982", "code": 2120, "fclass": "doctors", "name": "praxis-fuenfhausen" }, "geometry": { "type": "Point", "coordinates": [ 10.1313049, 53.4445692 ] } },
{ "type": "Feature", "properties": { "osm_id": "2645627073", "code": 2120, "fclass": "doctors", "name": "Dr. med. Ruth Hauck" }, "geometry": { "type": "Point", "coordinates": [ 9.9136913, 53.5581017 ] } },
{ "type": "Feature", "properties": { "osm_id": "2680504940", "code": 2120, "fclass": "doctors", "name": null }, "geometry": { "type": "Point", "coordinates": [ 9.9808271, 53.4582466 ] } },
{ "type": "Feature", "properties": { "osm_id": "2779041708", "code": 2120, "fclass": "doctors", "name": "Logopädische Praxis D. Schwiebert" }, "geometry": { "type": "Point", "coordinates": [ 10.2122988, 53.4865732 ] } },
{ "type": "Feature", "properties": { "osm_id": "2851829638", "code": 2120, "fclass": "doctors", "name": "Gemeinschaftspraxis Ulrike Jost und Gesine Averdick-Robrahn" }, "geometry": { "type": "Point", "coordinates": [ 10.1550803, 53.6833207 ] } },
{ "type": "Feature", "properties": { "osm_id": "2882437601", "code": 2120, "fclass": "doctors", "name": "therapieRAUM" }, "geometry": { "type": "Point", "coordinates": [ 10.0485067, 53.5646365 ] } },
{ "type": "Feature", "properties": { "osm_id": "2906917851", "code": 2120, "fclass": "doctors", "name": "Praxis für Physiotheraphie & Osteopathie" }, "geometry": { "type": "Point", "coordinates": [ 9.9888632, 53.5937529 ] } },
{ "type": "Feature", "properties": { "osm_id": "2909009111", "code": 2120, "fclass": "doctors", "name": "Naturheilpraxis Kudritzki" }, "geometry": { "type": "Point", "coordinates": [ 9.9877033, 53.5940587 ] } },
{ "type": "Feature", "properties": { "osm_id": "2918515628", "code": 2120, "fclass": "doctors", "name": "Osteopathiezentrum Kuhlmann" }, "geometry": { "type": "Point", "coordinates": [ 9.9863558, 53.5924232 ] } },
{ "type": "Feature", "properties": { "osm_id": "2926087001", "code": 2120, "fclass": "doctors", "name": "Fachärzte für HNO" }, "geometry": { "type": "Point", "coordinates": [ 9.9715366, 53.5772852 ] } },
{ "type": "Feature", "properties": { "osm_id": "2926097001", "code": 2120, "fclass": "doctors", "name": "Fachärzte für Allgemeinmedizin: Lau, Heihn, Rippel-Lau" }, "geometry": { "type": "Point", "coordinates": [ 9.9752995, 53.582887 ] } },
{ "type": "Feature", "properties": { "osm_id": "2965868665", "code": 2120, "fclass": "doctors", "name": "Hanse MKG, Bergedorf" }, "geometry": { "type": "Point", "coordinates": [ 10.2002081, 53.4853375 ] } },
{ "type": "Feature", "properties": { "osm_id": "2984618701", "code": 2120, "fclass": "doctors", "name": "Dermatologie" }, "geometry": { "type": "Point", "coordinates": [ 9.9723266, 53.5906571 ] } },
{ "type": "Feature", "properties": { "osm_id": "2984642710", "code": 2120, "fclass": "doctors", "name": "Universitäres Cancer Center Hamburg (UCCH)" }, "geometry": { "type": "Point", "coordinates": [ 9.9760849, 53.5909483 ] } },
{ "type": "Feature", "properties": { "osm_id": "2984651407", "code": 2120, "fclass": "doctors", "name": "Kinderintensivstation" }, "geometry": { "type": "Point", "coordinates": [ 9.9748655, 53.5919801 ] } },
{ "type": "Feature", "properties": { "osm_id": "2984655157", "code": 2120, "fclass": "doctors", "name": "Klinik für Kinder und Jugendmedizin" }, "geometry": { "type": "Point", "coordinates": [ 9.9748196, 53.5925788 ] } },
{ "type": "Feature", "properties": { "osm_id": "2984657220", "code": 2120, "fclass": "doctors", "name": "Kinder-Notaufnahme" }, "geometry": { "type": "Point", "coordinates": [ 9.975015, 53.5927204 ] } },
{ "type": "Feature", "properties": { "osm_id": "3093770071", "code": 2120, "fclass": "doctors", "name": "Diabetes-Zentrum Hellner" }, "geometry": { "type": "Point", "coordinates": [ 9.9616024, 53.5997546 ] } },
{ "type": "Feature", "properties": { "osm_id": "3134708369", "code": 2120, "fclass": "doctors", "name": "Hausärzte Gerlach-Lehmbecker Matthias Dr. med. u. Lucassen Joachim" }, "geometry": { "type": "Point", "coordinates": [ 10.092158, 53.5780545 ] } },
{ "type": "Feature", "properties": { "osm_id": "3164499270", "code": 2120, "fclass": "doctors", "name": "Medizinzentrum Hammoniabad" }, "geometry": { "type": "Point", "coordinates": [ 10.0286025, 53.5694114 ] } },
{ "type": "Feature", "properties": { "osm_id": "3238320609", "code": 2120, "fclass": "doctors", "name": "Kinderarzt Gerhard Jacob" }, "geometry": { "type": "Point", "coordinates": [ 9.9606384, 53.5635004 ] } },
{ "type": "Feature", "properties": { "osm_id": "3248392176", "code": 2120, "fclass": "doctors", "name": "Mund-, Kiefer und Gesichtschirurgie Dr. med. Joachim Blümel" }, "geometry": { "type": "Point", "coordinates": [ 9.9875826, 53.681845 ] } },
{ "type": "Feature", "properties": { "osm_id": "3264027273", "code": 2120, "fclass": "doctors", "name": "Praxis Stucke-Richter-Sharafi" }, "geometry": { "type": "Point", "coordinates": [ 9.9844493, 53.6830374 ] } },
{ "type": "Feature", "properties": { "osm_id": "3274312862", "code": 2120, "fclass": "doctors", "name": "Praxisklinik winterhude (Gynäkologie)" }, "geometry": { "type": "Point", "coordinates": [ 10.0117726, 53.5815652 ] } },
{ "type": "Feature", "properties": { "osm_id": "3438064144", "code": 2120, "fclass": "doctors", "name": "Physiotherapie Eva Sommer" }, "geometry": { "type": "Point", "coordinates": [ 10.1060784, 53.6507086 ] } },
{ "type": "Feature", "properties": { "osm_id": "3476227275", "code": 2120, "fclass": "doctors", "name": "Augenärzte im Hofweg" }, "geometry": { "type": "Point", "coordinates": [ 10.0149845, 53.5727631 ] } },
{ "type": "Feature", "properties": { "osm_id": "3506238371", "code": 2120, "fclass": "doctors", "name": "Hals-, Nasen- und Ohrenheilkunde" }, "geometry": { "type": "Point", "coordinates": [ 9.9758294, 53.5904974 ] } },
{ "type": "Feature", "properties": { "osm_id": "3506238372", "code": 2120, "fclass": "doctors", "name": "Mund-, Kiefer- und Gesichtschirurgie" }, "geometry": { "type": "Point", "coordinates": [ 9.9756196, 53.5904071 ] } },
{ "type": "Feature", "properties": { "osm_id": "3506239893", "code": 2120, "fclass": "doctors", "name": "Hör-, Stimm- und Sprachheilkunde" }, "geometry": { "type": "Point", "coordinates": [ 9.9759777, 53.5905631 ] } },
{ "type": "Feature", "properties": { "osm_id": "3506247335", "code": 2120, "fclass": "doctors", "name": "Blutentnahme" }, "geometry": { "type": "Point", "coordinates": [ 9.9748537, 53.5903435 ] } },
{ "type": "Feature", "properties": { "osm_id": "3506247336", "code": 2120, "fclass": "doctors", "name": "Narkoseaufklärung" }, "geometry": { "type": "Point", "coordinates": [ 9.9748678, 53.5905514 ] } },
{ "type": "Feature", "properties": { "osm_id": "3506247337", "code": 2120, "fclass": "doctors", "name": "Patientenaufnahme" }, "geometry": { "type": "Point", "coordinates": [ 9.9751172, 53.5903427 ] } },
{ "type": "Feature", "properties": { "osm_id": "3506247338", "code": 2120, "fclass": "doctors", "name": "Prämedikationsambulanz" }, "geometry": { "type": "Point", "coordinates": [ 9.9749749, 53.5904608 ] } },
{ "type": "Feature", "properties": { "osm_id": "3506260117", "code": 2120, "fclass": "doctors", "name": "AEP" }, "geometry": { "type": "Point", "coordinates": [ 9.9743811, 53.5905936 ] } },
{ "type": "Feature", "properties": { "osm_id": "3506260118", "code": 2120, "fclass": "doctors", "name": "Adipositas-Zentrum" }, "geometry": { "type": "Point", "coordinates": [ 9.9745521, 53.5902388 ] } },
{ "type": "Feature", "properties": { "osm_id": "3506260119", "code": 2120, "fclass": "doctors", "name": "EEG" }, "geometry": { "type": "Point", "coordinates": [ 9.9744975, 53.5905912 ] } },
{ "type": "Feature", "properties": { "osm_id": "3506260120", "code": 2120, "fclass": "doctors", "name": "EMG" }, "geometry": { "type": "Point", "coordinates": [ 9.9744751, 53.5906107 ] } },
{ "type": "Feature", "properties": { "osm_id": "3506260121", "code": 2120, "fclass": "doctors", "name": "Endokrinologie" }, "geometry": { "type": "Point", "coordinates": [ 9.974623, 53.590178 ] } },
{ "type": "Feature", "properties": { "osm_id": "3506260122", "code": 2120, "fclass": "doctors", "name": "Funktionsdiagnostik" }, "geometry": { "type": "Point", "coordinates": [ 9.9743709, 53.5906162 ] } },
{ "type": "Feature", "properties": { "osm_id": "3506260123", "code": 2120, "fclass": "doctors", "name": "Gynäkologie" }, "geometry": { "type": "Point", "coordinates": [ 9.9745315, 53.5901376 ] } },
{ "type": "Feature", "properties": { "osm_id": "3506260124", "code": 2120, "fclass": "doctors", "name": "Hepatobiliäre Chirurgie" }, "geometry": { "type": "Point", "coordinates": [ 9.9743219, 53.5903081 ] } },
{ "type": "Feature", "properties": { "osm_id": "3506260125", "code": 2120, "fclass": "doctors", "name": "Innere Medizin" }, "geometry": { "type": "Point", "coordinates": [ 9.9744124, 53.5903535 ] } },
{ "type": "Feature", "properties": { "osm_id": "3506260126", "code": 2120, "fclass": "doctors", "name": "MEP" }, "geometry": { "type": "Point", "coordinates": [ 9.9744468, 53.5906302 ] } },
{ "type": "Feature", "properties": { "osm_id": "3506260127", "code": 2120, "fclass": "doctors", "name": "NLG" }, "geometry": { "type": "Point", "coordinates": [ 9.9744171, 53.5906128 ] } },
{ "type": "Feature", "properties": { "osm_id": "3506260128", "code": 2120, "fclass": "doctors", "name": "Neurologie" }, "geometry": { "type": "Point", "coordinates": [ 9.9744395, 53.5905548 ] } },
{ "type": "Feature", "properties": { "osm_id": "3506260129", "code": 2120, "fclass": "doctors", "name": "Neurosonografie" }, "geometry": { "type": "Point", "coordinates": [ 9.9744733, 53.590572 ] } },
{ "type": "Feature", "properties": { "osm_id": "3506261759", "code": 2120, "fclass": "doctors", "name": "Rheumatologie" }, "geometry": { "type": "Point", "coordinates": [ 9.9744609, 53.5901964 ] } },
{ "type": "Feature", "properties": { "osm_id": "3506261760", "code": 2120, "fclass": "doctors", "name": "SEP" }, "geometry": { "type": "Point", "coordinates": [ 9.9744402, 53.5905902 ] } },
{ "type": "Feature", "properties": { "osm_id": "3506261761", "code": 2120, "fclass": "doctors", "name": "Seelsorge" }, "geometry": { "type": "Point", "coordinates": [ 9.9738123, 53.5913223 ] } },
{ "type": "Feature", "properties": { "osm_id": "3506261762", "code": 2120, "fclass": "doctors", "name": "Sozialdienst" }, "geometry": { "type": "Point", "coordinates": [ 9.9747386, 53.5904037 ] } },
{ "type": "Feature", "properties": { "osm_id": "3506261763", "code": 2120, "fclass": "doctors", "name": "VEP" }, "geometry": { "type": "Point", "coordinates": [ 9.9744077, 53.5905738 ] } },
{ "type": "Feature", "properties": { "osm_id": "3506267967", "code": 2120, "fclass": "doctors", "name": "Chirurgie" }, "geometry": { "type": "Point", "coordinates": [ 9.973572, 53.5910231 ] } },
{ "type": "Feature", "properties": { "osm_id": "3506267968", "code": 2120, "fclass": "doctors", "name": "Lungenfunktionsambulanz" }, "geometry": { "type": "Point", "coordinates": [ 9.9744037, 53.5908807 ] } },
{ "type": "Feature", "properties": { "osm_id": "3506267969", "code": 2120, "fclass": "doctors", "name": "Pneumologische Ambulanz" }, "geometry": { "type": "Point", "coordinates": [ 9.974318, 53.5909535 ] } },
{ "type": "Feature", "properties": { "osm_id": "3506267970", "code": 2120, "fclass": "doctors", "name": "Röntgen" }, "geometry": { "type": "Point", "coordinates": [ 9.9740131, 53.5909545 ] } },
{ "type": "Feature", "properties": { "osm_id": "3506267971", "code": 2120, "fclass": "doctors", "name": "Sonografie" }, "geometry": { "type": "Point", "coordinates": [ 9.974169, 53.5908253 ] } },
{ "type": "Feature", "properties": { "osm_id": "3506267972", "code": 2120, "fclass": "doctors", "name": "Urologie" }, "geometry": { "type": "Point", "coordinates": [ 9.9739308, 53.5910167 ] } },
{ "type": "Feature", "properties": { "osm_id": "3506270615", "code": 2120, "fclass": "doctors", "name": "Neurochirurgie" }, "geometry": { "type": "Point", "coordinates": [ 9.9740868, 53.5906433 ] } },
{ "type": "Feature", "properties": { "osm_id": "3506270616", "code": 2120, "fclass": "doctors", "name": "Neurologie" }, "geometry": { "type": "Point", "coordinates": [ 9.9739827, 53.5905967 ] } },
{ "type": "Feature", "properties": { "osm_id": "3506270617", "code": 2120, "fclass": "doctors", "name": "Schmerzambulanz" }, "geometry": { "type": "Point", "coordinates": [ 9.9739012, 53.5906571 ] } },
{ "type": "Feature", "properties": { "osm_id": "3506270618", "code": 2120, "fclass": "doctors", "name": "Urologie" }, "geometry": { "type": "Point", "coordinates": [ 9.9738484, 53.5907993 ] } },
{ "type": "Feature", "properties": { "osm_id": "3506270619", "code": 2120, "fclass": "doctors", "name": "Wirbelsäule" }, "geometry": { "type": "Point", "coordinates": [ 9.9740029, 53.5907034 ] } },
{ "type": "Feature", "properties": { "osm_id": "3506270899", "code": 2120, "fclass": "doctors", "name": "Notaufnahme" }, "geometry": { "type": "Point", "coordinates": [ 9.97331, 53.5911669 ] } },
{ "type": "Feature", "properties": { "osm_id": "3507574603", "code": 2120, "fclass": "doctors", "name": "Carepoint Othopädietechnik" }, "geometry": { "type": "Point", "coordinates": [ 9.9732139, 53.5898847 ] } },
{ "type": "Feature", "properties": { "osm_id": "3507574604", "code": 2120, "fclass": "doctors", "name": "Clinical Trial Center" }, "geometry": { "type": "Point", "coordinates": [ 9.9731847, 53.5900525 ] } },
{ "type": "Feature", "properties": { "osm_id": "3507574605", "code": 2120, "fclass": "doctors", "name": "Deutsche Stimmklinik" }, "geometry": { "type": "Point", "coordinates": [ 9.9732479, 53.5897135 ] } },
{ "type": "Feature", "properties": { "osm_id": "3507574606", "code": 2120, "fclass": "doctors", "name": "Hanseaticum" }, "geometry": { "type": "Point", "coordinates": [ 9.9732513, 53.5899908 ] } },
{ "type": "Feature", "properties": { "osm_id": "3507574607", "code": 2120, "fclass": "doctors", "name": "Nord Service Projects" }, "geometry": { "type": "Point", "coordinates": [ 9.9731415, 53.5899492 ] } },
{ "type": "Feature", "properties": { "osm_id": "3507574608", "code": 2120, "fclass": "doctors", "name": "Preventive Care Center" }, "geometry": { "type": "Point", "coordinates": [ 9.9733296, 53.5896462 ] } },
{ "type": "Feature", "properties": { "osm_id": "3507574609", "code": 2120, "fclass": "doctors", "name": "RehaCentrum Hamburg" }, "geometry": { "type": "Point", "coordinates": [ 9.9734406, 53.5896865 ] } },
{ "type": "Feature", "properties": { "osm_id": "3507574610", "code": 2120, "fclass": "doctors", "name": "Schlaflabor im Spectrum" }, "geometry": { "type": "Point", "coordinates": [ 9.9733682, 53.5897537 ] } },
{ "type": "Feature", "properties": { "osm_id": "3507574611", "code": 2120, "fclass": "doctors", "name": "Zentrum Sehstärke" }, "geometry": { "type": "Point", "coordinates": [ 9.9733238, 53.5899305 ] } },
{ "type": "Feature", "properties": { "osm_id": "3507574612", "code": 2120, "fclass": "doctors", "name": "Zentrum für innovative Radiologie" }, "geometry": { "type": "Point", "coordinates": [ 9.9732981, 53.5898182 ] } },
{ "type": "Feature", "properties": { "osm_id": "3509149004", "code": 2120, "fclass": "doctors", "name": "Zentrum für Molekulare Neurobiologie Hamburg" }, "geometry": { "type": "Point", "coordinates": [ 9.9712095, 53.5867389 ] } },
{ "type": "Feature", "properties": { "osm_id": "3530611493", "code": 2120, "fclass": "doctors", "name": "Hautarzt Dr. Hicks" }, "geometry": { "type": "Point", "coordinates": [ 9.9153183, 53.561076 ] } },
{ "type": "Feature", "properties": { "osm_id": "3556409305", "code": 2120, "fclass": "doctors", "name": "Facharztteam Allgemeinmedizin Heimfeld" }, "geometry": { "type": "Point", "coordinates": [ 9.9647111, 53.464493 ] } },
{ "type": "Feature", "properties": { "osm_id": "3576709559", "code": 2120, "fclass": "doctors", "name": "Physiotherapeutin Constanze Blan" }, "geometry": { "type": "Point", "coordinates": [ 10.0849098, 53.661631 ] } },
{ "type": "Feature", "properties": { "osm_id": "3610209693", "code": 2120, "fclass": "doctors", "name": "Bauck & Wechselberger" }, "geometry": { "type": "Point", "coordinates": [ 10.0528914, 53.5859223 ] } },
{ "type": "Feature", "properties": { "osm_id": "3610548894", "code": 2120, "fclass": "doctors", "name": "Ellen Kock Physiotherapie" }, "geometry": { "type": "Point", "coordinates": [ 10.0506112, 53.5864802 ] } },
{ "type": "Feature", "properties": { "osm_id": "3632611436", "code": 2120, "fclass": "doctors", "name": "Ganzheitliche Medizin Dr. Stoppa und Kollegen" }, "geometry": { "type": "Point", "coordinates": [ 10.0461301, 53.5887479 ] } },
{ "type": "Feature", "properties": { "osm_id": "3672023959", "code": 2120, "fclass": "doctors", "name": "Dr. med. C. Dittmar" }, "geometry": { "type": "Point", "coordinates": [ 9.9478231, 53.5771308 ] } },
{ "type": "Feature", "properties": { "osm_id": "3672023961", "code": 2120, "fclass": "doctors", "name": "Eva Heumann" }, "geometry": { "type": "Point", "coordinates": [ 9.9479116, 53.5770363 ] } },
{ "type": "Feature", "properties": { "osm_id": "3672023964", "code": 2120, "fclass": "doctors", "name": "Gemeinschaftspraxis für Nervenheilkunde" }, "geometry": { "type": "Point", "coordinates": [ 9.9479831, 53.5769945 ] } },
{ "type": "Feature", "properties": { "osm_id": "3672023976", "code": 2120, "fclass": "doctors", "name": "Lifeliness" }, "geometry": { "type": "Point", "coordinates": [ 9.9478911, 53.5770644 ] } },
{ "type": "Feature", "properties": { "osm_id": "3672023978", "code": 2120, "fclass": "doctors", "name": "Mensch im Fokus" }, "geometry": { "type": "Point", "coordinates": [ 9.9479487, 53.5770526 ] } },
{ "type": "Feature", "properties": { "osm_id": "3672023984", "code": 2120, "fclass": "doctors", "name": "Veronika Schulz" }, "geometry": { "type": "Point", "coordinates": [ 9.9477674, 53.5771596 ] } },
{ "type": "Feature", "properties": { "osm_id": "3672068810", "code": 2120, "fclass": "doctors", "name": "Augenärzte" }, "geometry": { "type": "Point", "coordinates": [ 9.9511652, 53.5763579 ] } },
{ "type": "Feature", "properties": { "osm_id": "3672068822", "code": 2120, "fclass": "doctors", "name": "HNO" }, "geometry": { "type": "Point", "coordinates": [ 9.9502157, 53.5764741 ] } },
{ "type": "Feature", "properties": { "osm_id": "3672073229", "code": 2120, "fclass": "doctors", "name": "Kinderfacharztpraxis Dr. med. Sigrid Renz" }, "geometry": { "type": "Point", "coordinates": [ 9.9494944, 53.5766635 ] } },
{ "type": "Feature", "properties": { "osm_id": "3672073237", "code": 2120, "fclass": "doctors", "name": "Praxen für Orthopädie und Unfallchirurgie" }, "geometry": { "type": "Point", "coordinates": [ 9.9494138, 53.5766413 ] } },
{ "type": "Feature", "properties": { "osm_id": "3673306893", "code": 2120, "fclass": "doctors", "name": "Notfallpraxis Altona" }, "geometry": { "type": "Point", "coordinates": [ 9.9599747, 53.5598519 ] } },
{ "type": "Feature", "properties": { "osm_id": "3686659625", "code": 2120, "fclass": "doctors", "name": "Dr. Kiran Paulsen \/ Dr. Joachim Harnack" }, "geometry": { "type": "Point", "coordinates": [ 9.9737539, 53.5810027 ] } },
{ "type": "Feature", "properties": { "osm_id": "3688386315", "code": 2120, "fclass": "doctors", "name": "Bernd Lehmann" }, "geometry": { "type": "Point", "coordinates": [ 9.9515028, 53.57667 ] } },
{ "type": "Feature", "properties": { "osm_id": "3688386322", "code": 2120, "fclass": "doctors", "name": "Dr. med. Lukas Schmitt" }, "geometry": { "type": "Point", "coordinates": [ 9.9515818, 53.5768954 ] } },
{ "type": "Feature", "properties": { "osm_id": "3688386323", "code": 2120, "fclass": "doctors", "name": "Dr. med. Petra Klaus" }, "geometry": { "type": "Point", "coordinates": [ 9.9514851, 53.576871 ] } },
{ "type": "Feature", "properties": { "osm_id": "3688387125", "code": 2120, "fclass": "doctors", "name": "Fachärzte für Urologie und Andrologie" }, "geometry": { "type": "Point", "coordinates": [ 9.9516851, 53.5769193 ] } },
{ "type": "Feature", "properties": { "osm_id": "3688387126", "code": 2120, "fclass": "doctors", "name": "Frauenarztpraxis Heussweg" }, "geometry": { "type": "Point", "coordinates": [ 9.9515582, 53.5768299 ] } },
{ "type": "Feature", "properties": { "osm_id": "3688387127", "code": 2120, "fclass": "doctors", "name": "Hausärzte" }, "geometry": { "type": "Point", "coordinates": [ 9.9516462, 53.5768568 ] } },
{ "type": "Feature", "properties": { "osm_id": "3688387128", "code": 2120, "fclass": "doctors", "name": "Hausärztliche Praxisgemeinschaft Heussweg" }, "geometry": { "type": "Point", "coordinates": [ 9.9515317, 53.5767482 ] } },
{ "type": "Feature", "properties": { "osm_id": "3688387137", "code": 2120, "fclass": "doctors", "name": "Lungenarzt" }, "geometry": { "type": "Point", "coordinates": [ 9.9516217, 53.5767918 ] } },
{ "type": "Feature", "properties": { "osm_id": "3688387155", "code": 2120, "fclass": "doctors", "name": "Ärzte für Frauenheilkunde und Geburtshilfe" }, "geometry": { "type": "Point", "coordinates": [ 9.9515058, 53.5769354 ] } },
{ "type": "Feature", "properties": { "osm_id": "3688450446", "code": 2120, "fclass": "doctors", "name": "Chirurgische Gemeinschaftspraxis Osterstraße" }, "geometry": { "type": "Point", "coordinates": [ 9.9524509, 53.5764775 ] } },
{ "type": "Feature", "properties": { "osm_id": "3688450448", "code": 2120, "fclass": "doctors", "name": "Dr. Dr. Reinhard Volkenstein M. Sc." }, "geometry": { "type": "Point", "coordinates": [ 9.9514445, 53.5770672 ] } },
{ "type": "Feature", "properties": { "osm_id": "3688450451", "code": 2120, "fclass": "doctors", "name": "Internistenpraxis Osterstraße" }, "geometry": { "type": "Point", "coordinates": [ 9.952581, 53.5765006 ] } },
{ "type": "Feature", "properties": { "osm_id": "3688450453", "code": 2120, "fclass": "doctors", "name": "Kieferorthopädie" }, "geometry": { "type": "Point", "coordinates": [ 9.9515508, 53.5770479 ] } },
{ "type": "Feature", "properties": { "osm_id": "3688450455", "code": 2120, "fclass": "doctors", "name": "Praxiszentrum für Physiotherapie und Osteopathi" }, "geometry": { "type": "Point", "coordinates": [ 9.9523658, 53.5765258 ] } },
{ "type": "Feature", "properties": { "osm_id": "3699146025", "code": 2120, "fclass": "doctors", "name": "Dr. med. Bianca Falkenberg" }, "geometry": { "type": "Point", "coordinates": [ 9.9490412, 53.5769254 ] } },
{ "type": "Feature", "properties": { "osm_id": "3706389825", "code": 2120, "fclass": "doctors", "name": "Gowhar Keyhanian" }, "geometry": { "type": "Point", "coordinates": [ 9.9876681, 53.5144171 ] } },
{ "type": "Feature", "properties": { "osm_id": "3707505640", "code": 2120, "fclass": "doctors", "name": "Zentrum für Traditionelle Chinesische Medizin" }, "geometry": { "type": "Point", "coordinates": [ 9.9783268, 53.5923463 ] } },
{ "type": "Feature", "properties": { "osm_id": "3746458789", "code": 2120, "fclass": "doctors", "name": "Nobis Bene" }, "geometry": { "type": "Point", "coordinates": [ 9.9539703, 53.5504973 ] } },
{ "type": "Feature", "properties": { "osm_id": "3750409240", "code": 2120, "fclass": "doctors", "name": "Augen-Tagesklinik und Laser-Zentrum an der Rothenbaumchaussee" }, "geometry": { "type": "Point", "coordinates": [ 9.9882036, 53.5732024 ] } },
{ "type": "Feature", "properties": { "osm_id": "3750448950", "code": 2120, "fclass": "doctors", "name": "Knie-Hand-Fuss-Praxis" }, "geometry": { "type": "Point", "coordinates": [ 9.999817, 53.580674 ] } },
{ "type": "Feature", "properties": { "osm_id": "3761021726", "code": 2120, "fclass": "doctors", "name": "Ambulante Physiotherapie" }, "geometry": { "type": "Point", "coordinates": [ 9.9787423, 53.5918546 ] } },
{ "type": "Feature", "properties": { "osm_id": "3761048990", "code": 2120, "fclass": "doctors", "name": "Neuroradiologie" }, "geometry": { "type": "Point", "coordinates": [ 9.9757565, 53.5911169 ] } },
{ "type": "Feature", "properties": { "osm_id": "3761048995", "code": 2120, "fclass": "doctors", "name": "Röntgen" }, "geometry": { "type": "Point", "coordinates": [ 9.9758546, 53.5911387 ] } },
{ "type": "Feature", "properties": { "osm_id": "3761054905", "code": 2120, "fclass": "doctors", "name": "Dialyse" }, "geometry": { "type": "Point", "coordinates": [ 9.9760936, 53.5912678 ] } },
{ "type": "Feature", "properties": { "osm_id": "3761054906", "code": 2120, "fclass": "doctors", "name": "Kieferorthopädie" }, "geometry": { "type": "Point", "coordinates": [ 9.9782079, 53.5928059 ] } },
{ "type": "Feature", "properties": { "osm_id": "3761054908", "code": 2120, "fclass": "doctors", "name": "Zahn-, Mund- und Kieferheilkunde" }, "geometry": { "type": "Point", "coordinates": [ 9.9781125, 53.5928844 ] } },
{ "type": "Feature", "properties": { "osm_id": "3761054909", "code": 2120, "fclass": "doctors", "name": "Zahnerhaltung und Präventive Zahnheilkunde" }, "geometry": { "type": "Point", "coordinates": [ 9.9783031, 53.592726 ] } },
{ "type": "Feature", "properties": { "osm_id": "3761054910", "code": 2120, "fclass": "doctors", "name": "Zahnärztliche Prothetik" }, "geometry": { "type": "Point", "coordinates": [ 9.9783479, 53.5928612 ] } },
{ "type": "Feature", "properties": { "osm_id": "3761054911", "code": 2120, "fclass": "doctors", "name": "Zahnärztliches Röntgen" }, "geometry": { "type": "Point", "coordinates": [ 9.9782488, 53.5929438 ] } },
{ "type": "Feature", "properties": { "osm_id": "3761057359", "code": 2120, "fclass": "doctors", "name": "MRT" }, "geometry": { "type": "Point", "coordinates": [ 9.9751745, 53.5909153 ] } },
{ "type": "Feature", "properties": { "osm_id": "3761057360", "code": 2120, "fclass": "doctors", "name": "Mammographie" }, "geometry": { "type": "Point", "coordinates": [ 9.9752121, 53.5908355 ] } },
{ "type": "Feature", "properties": { "osm_id": "3761057361", "code": 2120, "fclass": "doctors", "name": "Nuklearmedizin" }, "geometry": { "type": "Point", "coordinates": [ 9.9751527, 53.5910296 ] } },
{ "type": "Feature", "properties": { "osm_id": "3761057363", "code": 2120, "fclass": "doctors", "name": "Strahlentherapie" }, "geometry": { "type": "Point", "coordinates": [ 9.9753783, 53.5912965 ] } },
{ "type": "Feature", "properties": { "osm_id": "3761057530", "code": 2120, "fclass": "doctors", "name": "Herzzentrum" }, "geometry": { "type": "Point", "coordinates": [ 9.9756013, 53.5921787 ] } },
{ "type": "Feature", "properties": { "osm_id": "3761057532", "code": 2120, "fclass": "doctors", "name": "Herzkatheter Labor" }, "geometry": { "type": "Point", "coordinates": [ 9.975139, 53.5919291 ] } },
{ "type": "Feature", "properties": { "osm_id": "3761060446", "code": 2120, "fclass": "doctors", "name": "Infektiologie und Tropenmedizin" }, "geometry": { "type": "Point", "coordinates": [ 9.9767667, 53.5907575 ] } },
{ "type": "Feature", "properties": { "osm_id": "3761061326", "code": 2120, "fclass": "doctors", "name": "Kompetenzzentrum für Sport- und Bewegungsmedizin" }, "geometry": { "type": "Point", "coordinates": [ 9.9793442, 53.5921228 ] } },
{ "type": "Feature", "properties": { "osm_id": "3761064799", "code": 2120, "fclass": "doctors", "name": "Prostatakrebs Sprechstunde" }, "geometry": { "type": "Point", "coordinates": [ 9.9787892, 53.5916937 ] } },
{ "type": "Feature", "properties": { "osm_id": "3761066305", "code": 2120, "fclass": "doctors", "name": "Ambulanz für Neurofibromatose" }, "geometry": { "type": "Point", "coordinates": [ 9.9777464, 53.5925674 ] } },
{ "type": "Feature", "properties": { "osm_id": "3761067424", "code": 2120, "fclass": "doctors", "name": "Ambulanzzentrum für Sport- und Bewegungsmedizin" }, "geometry": { "type": "Point", "coordinates": [ 9.9787305, 53.5925685 ] } },
{ "type": "Feature", "properties": { "osm_id": "3761075444", "code": 2120, "fclass": "doctors", "name": "Ambulanzzentrum Allgemeine Medizin" }, "geometry": { "type": "Point", "coordinates": [ 9.9786461, 53.5925316 ] } },
{ "type": "Feature", "properties": { "osm_id": "3761075445", "code": 2120, "fclass": "doctors", "name": "Children for Tomorrow" }, "geometry": { "type": "Point", "coordinates": [ 9.9782279, 53.5913379 ] } },
{ "type": "Feature", "properties": { "osm_id": "3761075446", "code": 2120, "fclass": "doctors", "name": "Flüchtlingsambulanz" }, "geometry": { "type": "Point", "coordinates": [ 9.9781296, 53.5912991 ] } },
{ "type": "Feature", "properties": { "osm_id": "3761075452", "code": 2120, "fclass": "doctors", "name": "Klinik für Anästhesiologie" }, "geometry": { "type": "Point", "coordinates": [ 9.9773179, 53.5906184 ] } },
{ "type": "Feature", "properties": { "osm_id": "3761075453", "code": 2120, "fclass": "doctors", "name": "Poliklinik für Psychosomatik und Psychotherapie" }, "geometry": { "type": "Point", "coordinates": [ 9.9769428, 53.5904729 ] } },
{ "type": "Feature", "properties": { "osm_id": "3761077094", "code": 2120, "fclass": "doctors", "name": "Epidemiologisches Studienzentrum" }, "geometry": { "type": "Point", "coordinates": [ 9.9791977, 53.592467 ] } },
{ "type": "Feature", "properties": { "osm_id": "3763222858", "code": 2120, "fclass": "doctors", "name": "Betriebsärztlicher Dienst" }, "geometry": { "type": "Point", "coordinates": [ 9.975168, 53.5931623 ] } },
{ "type": "Feature", "properties": { "osm_id": "3763225556", "code": 2120, "fclass": "doctors", "name": "Kinderklinik Krankengymnastik" }, "geometry": { "type": "Point", "coordinates": [ 9.9743735, 53.5919903 ] } },
{ "type": "Feature", "properties": { "osm_id": "3763231757", "code": 2120, "fclass": "doctors", "name": "Kinderlotse e.V." }, "geometry": { "type": "Point", "coordinates": [ 9.9748716, 53.5930828 ] } },
{ "type": "Feature", "properties": { "osm_id": "3763231758", "code": 2120, "fclass": "doctors", "name": "MediGate" }, "geometry": { "type": "Point", "coordinates": [ 9.9717996, 53.5916229 ] } },
{ "type": "Feature", "properties": { "osm_id": "3763231759", "code": 2120, "fclass": "doctors", "name": "Psycho- soziale Beratung und Suchtprävention" }, "geometry": { "type": "Point", "coordinates": [ 9.9749496, 53.5930233 ] } },
{ "type": "Feature", "properties": { "osm_id": "3763238294", "code": 2120, "fclass": "doctors", "name": "Kinder und Jugendmedizin Pädiatrische Hämatologie und Onkologie" }, "geometry": { "type": "Point", "coordinates": [ 9.9740172, 53.591938 ] } },
{ "type": "Feature", "properties": { "osm_id": "3763238295", "code": 2120, "fclass": "doctors", "name": "Kinder und Jugendmedizin Pädiatrische Radiologie" }, "geometry": { "type": "Point", "coordinates": [ 9.9742205, 53.5927516 ] } },
{ "type": "Feature", "properties": { "osm_id": "3763243725", "code": 2120, "fclass": "doctors", "name": "Institut für Biochemie und Molekulare Zellbiologie" }, "geometry": { "type": "Point", "coordinates": [ 9.9764721, 53.5937122 ] } },
{ "type": "Feature", "properties": { "osm_id": "3763243726", "code": 2120, "fclass": "doctors", "name": "Institut für Experimentelle Pharmakologie und Toxikologie" }, "geometry": { "type": "Point", "coordinates": [ 9.9766584, 53.5938008 ] } },
{ "type": "Feature", "properties": { "osm_id": "3763243727", "code": 2120, "fclass": "doctors", "name": "Institut für Geschichte und Ethik der Medizin" }, "geometry": { "type": "Point", "coordinates": [ 9.977055, 53.5937474 ] } },
{ "type": "Feature", "properties": { "osm_id": "3763243728", "code": 2120, "fclass": "doctors", "name": "Institut für Klinische Pharmakologie und Toxikologie" }, "geometry": { "type": "Point", "coordinates": [ 9.97666, 53.5937122 ] } },
{ "type": "Feature", "properties": { "osm_id": "3763243729", "code": 2120, "fclass": "doctors", "name": "Institut für Neuroanatomie" }, "geometry": { "type": "Point", "coordinates": [ 9.9719877, 53.5923986 ] } },
{ "type": "Feature", "properties": { "osm_id": "3763243737", "code": 2120, "fclass": "doctors", "name": "Radiologie" }, "geometry": { "type": "Point", "coordinates": [ 9.9758341, 53.5910809 ] } },
{ "type": "Feature", "properties": { "osm_id": "3763249364", "code": 2120, "fclass": "doctors", "name": "Biomagnetometer" }, "geometry": { "type": "Point", "coordinates": [ 9.9758286, 53.5937963 ] } },
{ "type": "Feature", "properties": { "osm_id": "3763249365", "code": 2120, "fclass": "doctors", "name": "Humangenetik-Diagnostik" }, "geometry": { "type": "Point", "coordinates": [ 9.9778123, 53.5933958 ] } },
{ "type": "Feature", "properties": { "osm_id": "3763249366", "code": 2120, "fclass": "doctors", "name": "Labore Pathologie" }, "geometry": { "type": "Point", "coordinates": [ 9.977671, 53.5935101 ] } },
{ "type": "Feature", "properties": { "osm_id": "3763249367", "code": 2120, "fclass": "doctors", "name": "Nierenregister" }, "geometry": { "type": "Point", "coordinates": [ 9.9777416, 53.593452 ] } },
{ "type": "Feature", "properties": { "osm_id": "3763837437", "code": 2120, "fclass": "doctors", "name": "Dr. med. M. Lux" }, "geometry": { "type": "Point", "coordinates": [ 10.2738414, 53.4297267 ] } },
{ "type": "Feature", "properties": { "osm_id": "3771238745", "code": 2120, "fclass": "doctors", "name": "Andrologie" }, "geometry": { "type": "Point", "coordinates": [ 9.9718044, 53.5884409 ] } },
{ "type": "Feature", "properties": { "osm_id": "3771238746", "code": 2120, "fclass": "doctors", "name": "Institut für Forensische Psychiatrie" }, "geometry": { "type": "Point", "coordinates": [ 9.9719509, 53.5883005 ] } },
{ "type": "Feature", "properties": { "osm_id": "3771238747", "code": 2120, "fclass": "doctors", "name": "Institut für Sexualforschung" }, "geometry": { "type": "Point", "coordinates": [ 9.9718738, 53.5883707 ] } },
{ "type": "Feature", "properties": { "osm_id": "3771238748", "code": 2120, "fclass": "doctors", "name": "Männergesundheit" }, "geometry": { "type": "Point", "coordinates": [ 9.9720301, 53.5882383 ] } },
{ "type": "Feature", "properties": { "osm_id": "3771250966", "code": 2120, "fclass": "doctors", "name": "Institut für Versorgungsforschung in der Dermatologie und bei Pflegeberufen" }, "geometry": { "type": "Point", "coordinates": [ 9.9721531, 53.5881524 ] } },
{ "type": "Feature", "properties": { "osm_id": "3771252799", "code": 2120, "fclass": "doctors", "name": "Anästhesie Zentrum Hamburg" }, "geometry": { "type": "Point", "coordinates": [ 9.9727614, 53.5883825 ] } },
{ "type": "Feature", "properties": { "osm_id": "3771252800", "code": 2120, "fclass": "doctors", "name": "Dermato-Onkologie, Ästhetik" }, "geometry": { "type": "Point", "coordinates": [ 9.9722885, 53.588205 ] } },
{ "type": "Feature", "properties": { "osm_id": "3771252801", "code": 2120, "fclass": "doctors", "name": "Die Anaesthesie" }, "geometry": { "type": "Point", "coordinates": [ 9.972926, 53.5884479 ] } },
{ "type": "Feature", "properties": { "osm_id": "3771857694", "code": 2120, "fclass": "doctors", "name": "Ambulantes Augen OP-Zentrum" }, "geometry": { "type": "Point", "coordinates": [ 9.9710365, 53.5878165 ] } },
{ "type": "Feature", "properties": { "osm_id": "3771857698", "code": 2120, "fclass": "doctors", "name": "Augen-Diagnostik-Centrum" }, "geometry": { "type": "Point", "coordinates": [ 9.9708979, 53.5877669 ] } },
{ "type": "Feature", "properties": { "osm_id": "3771857699", "code": 2120, "fclass": "doctors", "name": "CareVision Augenlaserkorrekturen" }, "geometry": { "type": "Point", "coordinates": [ 9.9709183, 53.588153 ] } },
{ "type": "Feature", "properties": { "osm_id": "3771857700", "code": 2120, "fclass": "doctors", "name": "Drogenambulanz" }, "geometry": { "type": "Point", "coordinates": [ 9.971155, 53.5897656 ] } },
{ "type": "Feature", "properties": { "osm_id": "3771857708", "code": 2120, "fclass": "doctors", "name": "Institut für Medizinische Psychologie" }, "geometry": { "type": "Point", "coordinates": [ 9.9713973, 53.5895877 ] } },
{ "type": "Feature", "properties": { "osm_id": "3771857710", "code": 2120, "fclass": "doctors", "name": "Ple- und Orthoptik" }, "geometry": { "type": "Point", "coordinates": [ 9.9707251, 53.5879302 ] } },
{ "type": "Feature", "properties": { "osm_id": "3771857711", "code": 2120, "fclass": "doctors", "name": "Poliklinik für Augenheilkunde" }, "geometry": { "type": "Point", "coordinates": [ 9.9708469, 53.5879733 ] } },
{ "type": "Feature", "properties": { "osm_id": "3771857712", "code": 2120, "fclass": "doctors", "name": "Poliklinik für Orthopädie" }, "geometry": { "type": "Point", "coordinates": [ 9.9736443, 53.5894399 ] } },
{ "type": "Feature", "properties": { "osm_id": "3771857722", "code": 2120, "fclass": "doctors", "name": "Reha-Zentrum Hamburg" }, "geometry": { "type": "Point", "coordinates": [ 9.9739189, 53.5895605 ] } },
{ "type": "Feature", "properties": { "osm_id": "3771872348", "code": 2120, "fclass": "doctors", "name": "AG Toxikologie" }, "geometry": { "type": "Point", "coordinates": [ 9.9713626, 53.590936 ] } },
{ "type": "Feature", "properties": { "osm_id": "3771872350", "code": 2120, "fclass": "doctors", "name": "Deutsches Zentrum für Suchtfragen des Kindes- und Jugendalters DZSKJ" }, "geometry": { "type": "Point", "coordinates": [ 9.9720919, 53.5900898 ] } },
{ "type": "Feature", "properties": { "osm_id": "3771872352", "code": 2120, "fclass": "doctors", "name": "Forschungssektion Kinder- und Jugendgesundheit" }, "geometry": { "type": "Point", "coordinates": [ 9.971299, 53.5904598 ] } },
{ "type": "Feature", "properties": { "osm_id": "3771872353", "code": 2120, "fclass": "doctors", "name": "Gefäßmedizin Forschung" }, "geometry": { "type": "Point", "coordinates": [ 9.9710801, 53.5908744 ] } },
{ "type": "Feature", "properties": { "osm_id": "3771898757", "code": 2120, "fclass": "doctors", "name": "Kinderchirurgie Forschung" }, "geometry": { "type": "Point", "coordinates": [ 9.9713335, 53.591029 ] } },
{ "type": "Feature", "properties": { "osm_id": "3771898759", "code": 2120, "fclass": "doctors", "name": "Molekulare Andrologie" }, "geometry": { "type": "Point", "coordinates": [ 9.9710528, 53.5909706 ] } },
{ "type": "Feature", "properties": { "osm_id": "3771898761", "code": 2120, "fclass": "doctors", "name": "Poliklinik für Kinder- und Jugendpsychomatik Ambulanz und Forschungsabteilung" }, "geometry": { "type": "Point", "coordinates": [ 9.9719424, 53.5900228 ] } },
{ "type": "Feature", "properties": { "osm_id": "3771904536", "code": 2120, "fclass": "doctors", "name": "Neuroradiologie" }, "geometry": { "type": "Point", "coordinates": [ 9.9726307, 53.5903873 ] } },
{ "type": "Feature", "properties": { "osm_id": "3771904537", "code": 2120, "fclass": "doctors", "name": "Plastische, Rekonstruktive und Ästhetische Chirurgie" }, "geometry": { "type": "Point", "coordinates": [ 9.9727515, 53.5902879 ] } },
{ "type": "Feature", "properties": { "osm_id": "3771943886", "code": 2120, "fclass": "doctors", "name": "Ambulanz für seelisch erkrankte Kinder und Jugendliche" }, "geometry": { "type": "Point", "coordinates": [ 9.9706843, 53.5896193 ] } },
{ "type": "Feature", "properties": { "osm_id": "3771943887", "code": 2120, "fclass": "doctors", "name": "Jugend-Suchtstation" }, "geometry": { "type": "Point", "coordinates": [ 9.9707845, 53.5895329 ] } },
{ "type": "Feature", "properties": { "osm_id": "3771943888", "code": 2120, "fclass": "doctors", "name": "Suchttagesklinik für Jugendliche" }, "geometry": { "type": "Point", "coordinates": [ 9.9708959, 53.5894489 ] } },
{ "type": "Feature", "properties": { "osm_id": "3771948703", "code": 2120, "fclass": "doctors", "name": "Ambulanzzentrum Dermatologie" }, "geometry": { "type": "Point", "coordinates": [ 9.9720151, 53.5884084 ] } },
{ "type": "Feature", "properties": { "osm_id": "3771948704", "code": 2120, "fclass": "doctors", "name": "Clinical Trial Center North" }, "geometry": { "type": "Point", "coordinates": [ 9.9747104, 53.588762 ] } },
{ "type": "Feature", "properties": { "osm_id": "3771948707", "code": 2120, "fclass": "doctors", "name": "Institut für Allgemeinmedizin" }, "geometry": { "type": "Point", "coordinates": [ 9.9746031, 53.5887207 ] } },
{ "type": "Feature", "properties": { "osm_id": "3771948709", "code": 2120, "fclass": "doctors", "name": "Institut für Medizinische Biometrie und Epidemiologie" }, "geometry": { "type": "Point", "coordinates": [ 9.974382, 53.5886241 ] } },
{ "type": "Feature", "properties": { "osm_id": "3771948711", "code": 2120, "fclass": "doctors", "name": "Institut für syst. Neurowissenschaften" }, "geometry": { "type": "Point", "coordinates": [ 9.9744964, 53.5886719 ] } },
{ "type": "Feature", "properties": { "osm_id": "3771948712", "code": 2120, "fclass": "doctors", "name": "Interdisziplinäres Kompetenzzentrum für Sexuelle Gesundheit" }, "geometry": { "type": "Point", "coordinates": [ 9.9719348, 53.5884901 ] } },
{ "type": "Feature", "properties": { "osm_id": "3771948713", "code": 2120, "fclass": "doctors", "name": "Klinik für Interdisziplinäre Endoskopie" }, "geometry": { "type": "Point", "coordinates": [ 9.9720959, 53.5883405 ] } },
{ "type": "Feature", "properties": { "osm_id": "3771948714", "code": 2120, "fclass": "doctors", "name": "Klinik für Psychiatrie" }, "geometry": { "type": "Point", "coordinates": [ 9.9718492, 53.588881 ] } },
{ "type": "Feature", "properties": { "osm_id": "3771948717", "code": 2120, "fclass": "doctors", "name": "Multiple Sklerose Tagesklinik" }, "geometry": { "type": "Point", "coordinates": [ 9.9748099, 53.5888062 ] } },
{ "type": "Feature", "properties": { "osm_id": "3771948718", "code": 2120, "fclass": "doctors", "name": "Neurologie Wissenschaftliche Labore" }, "geometry": { "type": "Point", "coordinates": [ 9.9742596, 53.5885729 ] } },
{ "type": "Feature", "properties": { "osm_id": "3771948719", "code": 2120, "fclass": "doctors", "name": "Neurowissenschaftliches MRT" }, "geometry": { "type": "Point", "coordinates": [ 9.9743876, 53.5890289 ] } },
{ "type": "Feature", "properties": { "osm_id": "3771948995", "code": 2120, "fclass": "doctors", "name": "Zentrum für Stoßwellentherapie" }, "geometry": { "type": "Point", "coordinates": [ 9.9721671, 53.5882719 ] } },
{ "type": "Feature", "properties": { "osm_id": "3825512057", "code": 2120, "fclass": "doctors", "name": "Birte Müller-Landré - Ärztin für Allgemeinmedizin" }, "geometry": { "type": "Point", "coordinates": [ 9.8634681, 53.5342171 ] } },
{ "type": "Feature", "properties": { "osm_id": "3888959920", "code": 2120, "fclass": "doctors", "name": "Allgemeinmedizinerin Frau Dr. Bralla" }, "geometry": { "type": "Point", "coordinates": [ 10.0756429, 53.5888957 ] } },
{ "type": "Feature", "properties": { "osm_id": "3888959921", "code": 2120, "fclass": "doctors", "name": "Augenarzt Frau D. Papst" }, "geometry": { "type": "Point", "coordinates": [ 10.0706603, 53.5734627 ] } },
{ "type": "Feature", "properties": { "osm_id": "3888959923", "code": 2120, "fclass": "doctors", "name": "Frauenarzt Dr. Runge" }, "geometry": { "type": "Point", "coordinates": [ 10.065584, 53.5706245 ] } },
{ "type": "Feature", "properties": { "osm_id": "3888959924", "code": 2120, "fclass": "doctors", "name": "Dr. Kölln" }, "geometry": { "type": "Point", "coordinates": [ 10.0670924, 53.5723037 ] } },
{ "type": "Feature", "properties": { "osm_id": "3888959925", "code": 2120, "fclass": "doctors", "name": "Frauenarzt Frau Dr.Knittlmayer" }, "geometry": { "type": "Point", "coordinates": [ 10.0706139, 53.5734683 ] } },
{ "type": "Feature", "properties": { "osm_id": "3888959926", "code": 2120, "fclass": "doctors", "name": "HNO-Arzt Dr. Rejmanowski" }, "geometry": { "type": "Point", "coordinates": [ 10.0646513, 53.5718501 ] } },
{ "type": "Feature", "properties": { "osm_id": "3888959929", "code": 2120, "fclass": "doctors", "name": "Hautarzt Dr. Köser" }, "geometry": { "type": "Point", "coordinates": [ 10.0706953, 53.5734706 ] } },
{ "type": "Feature", "properties": { "osm_id": "3888959932", "code": 2120, "fclass": "doctors", "name": "Internist Dr. med. Brandt" }, "geometry": { "type": "Point", "coordinates": [ 10.0706593, 53.5734768 ] } },
{ "type": "Feature", "properties": { "osm_id": "3888959934", "code": 2120, "fclass": "doctors", "name": "Kinderarzt Dr. Blaschke-Zimmermann" }, "geometry": { "type": "Point", "coordinates": [ 10.0345388, 53.5645051 ] } },
{ "type": "Feature", "properties": { "osm_id": "3888959938", "code": 2120, "fclass": "doctors", "name": "Orthopäde Dr. Backhaus" }, "geometry": { "type": "Point", "coordinates": [ 10.0345335, 53.5645184 ] } },
{ "type": "Feature", "properties": { "osm_id": "3888959939", "code": 2120, "fclass": "doctors", "name": "Orthopäde Dr. Schmidt" }, "geometry": { "type": "Point", "coordinates": [ 10.0678061, 53.5711947 ] } },
{ "type": "Feature", "properties": { "osm_id": "3888959940", "code": 2120, "fclass": "doctors", "name": "Orthopäde Dr. med. Voss" }, "geometry": { "type": "Point", "coordinates": [ 10.0696927, 53.574004 ] } },
{ "type": "Feature", "properties": { "osm_id": "3893896057", "code": 2120, "fclass": "doctors", "name": "Allgemeinmediziner \/ Internist Dr. Haupt" }, "geometry": { "type": "Point", "coordinates": [ 10.0871144, 53.5778844 ] } },
{ "type": "Feature", "properties": { "osm_id": "3893896058", "code": 2120, "fclass": "doctors", "name": "Allgemeinmediziner \/ Internist Dr. Krieg" }, "geometry": { "type": "Point", "coordinates": [ 10.0614751, 53.5717723 ] } },
{ "type": "Feature", "properties": { "osm_id": "3893896059", "code": 2120, "fclass": "doctors", "name": "Allgemeinmediziner \/ Internist Dr. Said" }, "geometry": { "type": "Point", "coordinates": [ 10.1370008, 53.5706433 ] } },
{ "type": "Feature", "properties": { "osm_id": "3893896060", "code": 2120, "fclass": "doctors", "name": "Arzt Dr Preyss" }, "geometry": { "type": "Point", "coordinates": [ 10.1184899, 53.6055502 ] } },
{ "type": "Feature", "properties": { "osm_id": "3893896061", "code": 2120, "fclass": "doctors", "name": "Arzt Dr. Göller" }, "geometry": { "type": "Point", "coordinates": [ 10.0805268, 53.6186935 ] } },
{ "type": "Feature", "properties": { "osm_id": "3893896062", "code": 2120, "fclass": "doctors", "name": "Arzt Dr. Lautier" }, "geometry": { "type": "Point", "coordinates": [ 10.0774388, 53.6171708 ] } },
{ "type": "Feature", "properties": { "osm_id": "3893896064", "code": 2120, "fclass": "doctors", "name": "Augenarzt Dr. Greven und Remmecke" }, "geometry": { "type": "Point", "coordinates": [ 10.1441353, 53.5849438 ] } },
{ "type": "Feature", "properties": { "osm_id": "3893896065", "code": 2120, "fclass": "doctors", "name": "Chirurg Dr. Glinka und Ohm" }, "geometry": { "type": "Point", "coordinates": [ 10.1186421, 53.6055423 ] } },
{ "type": "Feature", "properties": { "osm_id": "3893896067", "code": 2120, "fclass": "doctors", "name": "Chirurg Dr. Weber" }, "geometry": { "type": "Point", "coordinates": [ 10.076788, 53.6116709 ] } },
{ "type": "Feature", "properties": { "osm_id": "3893896068", "code": 2120, "fclass": "doctors", "name": "Dr. Horwitz" }, "geometry": { "type": "Point", "coordinates": [ 10.0823849, 53.6217862 ] } },
{ "type": "Feature", "properties": { "osm_id": "3893896069", "code": 2120, "fclass": "doctors", "name": "Gynäkologin Golubeva" }, "geometry": { "type": "Point", "coordinates": [ 10.105517, 53.5399739 ] } },
{ "type": "Feature", "properties": { "osm_id": "3893896070", "code": 2120, "fclass": "doctors", "name": "HNO-Arzt Dr. Beyer-Niesen" }, "geometry": { "type": "Point", "coordinates": [ 10.0768563, 53.6117227 ] } },
{ "type": "Feature", "properties": { "osm_id": "3893896071", "code": 2120, "fclass": "doctors", "name": "HNO-Arzt Dr. Georgi" }, "geometry": { "type": "Point", "coordinates": [ 10.0414044, 53.5793391 ] } },
{ "type": "Feature", "properties": { "osm_id": "3893896072", "code": 2120, "fclass": "doctors", "name": "HNO Praxis Hairi" }, "geometry": { "type": "Point", "coordinates": [ 10.0509506, 53.5577856 ] } },
{ "type": "Feature", "properties": { "osm_id": "3893896073", "code": 2120, "fclass": "doctors", "name": "HNO-Arzt Dr. Haunert" }, "geometry": { "type": "Point", "coordinates": [ 10.118431, 53.6054812 ] } },
{ "type": "Feature", "properties": { "osm_id": "3893896074", "code": 2120, "fclass": "doctors", "name": "HNO-Arzt Dr. Weidenfeld" }, "geometry": { "type": "Point", "coordinates": [ 10.0768427, 53.6116726 ] } },
{ "type": "Feature", "properties": { "osm_id": "3893896075", "code": 2120, "fclass": "doctors", "name": "HNO-Arzt Hr. Rieder" }, "geometry": { "type": "Point", "coordinates": [ 10.0768421, 53.6116985 ] } },
{ "type": "Feature", "properties": { "osm_id": "3893896076", "code": 2120, "fclass": "doctors", "name": "Neurologe \/ Psychiater Dr. Elias und Gerhard" }, "geometry": { "type": "Point", "coordinates": [ 10.0929263, 53.5983717 ] } },
{ "type": "Feature", "properties": { "osm_id": "3893896077", "code": 2120, "fclass": "doctors", "name": "Orthopäde Dr. Reinecke" }, "geometry": { "type": "Point", "coordinates": [ 10.076806, 53.6116951 ] } },
{ "type": "Feature", "properties": { "osm_id": "3893896078", "code": 2120, "fclass": "doctors", "name": "Orthopäde Dr. Schaefer" }, "geometry": { "type": "Point", "coordinates": [ 10.167549, 53.5952018 ] } },
{ "type": "Feature", "properties": { "osm_id": "3893896079", "code": 2120, "fclass": "doctors", "name": "Urologe Dr. med Klingenberger" }, "geometry": { "type": "Point", "coordinates": [ 10.0768166, 53.6117201 ] } },
{ "type": "Feature", "properties": { "osm_id": "3893896080", "code": 2120, "fclass": "doctors", "name": "Urologe Dr. med Neubauer" }, "geometry": { "type": "Point", "coordinates": [ 10.0767575, 53.6116926 ] } },
{ "type": "Feature", "properties": { "osm_id": "3893896081", "code": 2120, "fclass": "doctors", "name": "Ärztin Dr. Ley" }, "geometry": { "type": "Point", "coordinates": [ 10.0767556, 53.6117148 ] } },
{ "type": "Feature", "properties": { "osm_id": "3893982167", "code": 2120, "fclass": "doctors", "name": "Dr. Elster und Niebuhr" }, "geometry": { "type": "Point", "coordinates": [ 10.1340104, 53.5716112 ] } },
{ "type": "Feature", "properties": { "osm_id": "3893982168", "code": 2120, "fclass": "doctors", "name": "Arzt Dr. Handtke" }, "geometry": { "type": "Point", "coordinates": [ 10.0833669, 53.5758404 ] } },
{ "type": "Feature", "properties": { "osm_id": "3893982169", "code": 2120, "fclass": "doctors", "name": "Augenarzt Dr. Rohrschneider" }, "geometry": { "type": "Point", "coordinates": [ 10.0876856, 53.5877363 ] } },
{ "type": "Feature", "properties": { "osm_id": "3893982170", "code": 2120, "fclass": "doctors", "name": "Chirurg Dr. Hartmann" }, "geometry": { "type": "Point", "coordinates": [ 10.0089261, 53.5840548 ] } },
{ "type": "Feature", "properties": { "osm_id": "3893982171", "code": 2120, "fclass": "doctors", "name": "Chirurg Dr. Möller" }, "geometry": { "type": "Point", "coordinates": [ 10.0399527, 53.6033804 ] } },
{ "type": "Feature", "properties": { "osm_id": "3893982172", "code": 2120, "fclass": "doctors", "name": "Chirurg Dr. Pust" }, "geometry": { "type": "Point", "coordinates": [ 10.0200213, 53.5834509 ] } },
{ "type": "Feature", "properties": { "osm_id": "3893982173", "code": 2120, "fclass": "doctors", "name": "Gynäkologin Dr. Belzer" }, "geometry": { "type": "Point", "coordinates": [ 10.0799085, 53.5495175 ] } },
{ "type": "Feature", "properties": { "osm_id": "3893982174", "code": 2120, "fclass": "doctors", "name": "Gynäkologin Hojjaty" }, "geometry": { "type": "Point", "coordinates": [ 10.1370165, 53.5723206 ] } },
{ "type": "Feature", "properties": { "osm_id": "3893982175", "code": 2120, "fclass": "doctors", "name": "Kinderärztin Anna Halat" }, "geometry": { "type": "Point", "coordinates": [ 10.1799603, 53.590297 ] } },
{ "type": "Feature", "properties": { "osm_id": "3893982176", "code": 2120, "fclass": "doctors", "name": "Neurologe \/ Psychiater Dr. Emrich und Müller-Habich und Vogt" }, "geometry": { "type": "Point", "coordinates": [ 10.03746, 53.5759339 ] } },
{ "type": "Feature", "properties": { "osm_id": "3893982177", "code": 2120, "fclass": "doctors", "name": "Dr. Hamer" }, "geometry": { "type": "Point", "coordinates": [ 10.0805089, 53.5492966 ] } },
{ "type": "Feature", "properties": { "osm_id": "3893982178", "code": 2120, "fclass": "doctors", "name": "Orthopäde Dr. Horstmeyer und Liebig und Siebert" }, "geometry": { "type": "Point", "coordinates": [ 10.0276807, 53.5718273 ] } },
{ "type": "Feature", "properties": { "osm_id": "3893982179", "code": 2120, "fclass": "doctors", "name": "Urologe Dr. Hauschild" }, "geometry": { "type": "Point", "coordinates": [ 10.1396866, 53.6251802 ] } },
{ "type": "Feature", "properties": { "osm_id": "3893982180", "code": 2120, "fclass": "doctors", "name": "Urologe Dr. Schönfelder und Straßer" }, "geometry": { "type": "Point", "coordinates": [ 10.044598, 53.5937317 ] } },
{ "type": "Feature", "properties": { "osm_id": "3893997983", "code": 2120, "fclass": "doctors", "name": "Allgemeinmediziner \/ Internist Dr. Griem-Schlicht" }, "geometry": { "type": "Point", "coordinates": [ 10.0915724, 53.5646987 ] } },
{ "type": "Feature", "properties": { "osm_id": "3896957807", "code": 2120, "fclass": "doctors", "name": "HNO Facharzt-Gemeinschaftspraxis Swiridoff, Röhrs, Malligsen" }, "geometry": { "type": "Point", "coordinates": [ 10.0477457, 53.5871306 ] } },
{ "type": "Feature", "properties": { "osm_id": "3897266955", "code": 2120, "fclass": "doctors", "name": "Urologische Privatpraxis Alstertal" }, "geometry": { "type": "Point", "coordinates": [ 10.084613, 53.6570473 ] } },
{ "type": "Feature", "properties": { "osm_id": "3897727049", "code": 2120, "fclass": "doctors", "name": "Allgemeinarzt Kridde" }, "geometry": { "type": "Point", "coordinates": [ 10.0761294, 53.5719053 ] } },
{ "type": "Feature", "properties": { "osm_id": "3897727050", "code": 2120, "fclass": "doctors", "name": "Kinderarzt Beland\/ Wittkugel" }, "geometry": { "type": "Point", "coordinates": [ 10.0761732, 53.5719822 ] } },
{ "type": "Feature", "properties": { "osm_id": "3897727051", "code": 2120, "fclass": "doctors", "name": "Neurologie Glashoff\/ Koppermann" }, "geometry": { "type": "Point", "coordinates": [ 10.0724467, 53.5719924 ] } },
{ "type": "Feature", "properties": { "osm_id": "3897833756", "code": 2120, "fclass": "doctors", "name": "Augenarzt Lattke" }, "geometry": { "type": "Point", "coordinates": [ 10.069529, 53.5715024 ] } },
{ "type": "Feature", "properties": { "osm_id": "3897838457", "code": 2120, "fclass": "doctors", "name": "Chirurgie Knoop\/ Schütze" }, "geometry": { "type": "Point", "coordinates": [ 10.0684536, 53.5712616 ] } },
{ "type": "Feature", "properties": { "osm_id": "3897838458", "code": 2120, "fclass": "doctors", "name": "Frauenarzt Soldan" }, "geometry": { "type": "Point", "coordinates": [ 10.0695104, 53.5715245 ] } },
{ "type": "Feature", "properties": { "osm_id": "3897838459", "code": 2120, "fclass": "doctors", "name": "Neurologie Razai" }, "geometry": { "type": "Point", "coordinates": [ 10.0695551, 53.5714759 ] } },
{ "type": "Feature", "properties": { "osm_id": "3897838460", "code": 2120, "fclass": "doctors", "name": "Urologisches Zentrum Wandsbek" }, "geometry": { "type": "Point", "coordinates": [ 10.0684368, 53.5712284 ] } },
{ "type": "Feature", "properties": { "osm_id": "3946397939", "code": 2120, "fclass": "doctors", "name": "Dr. med. Heino Runge" }, "geometry": { "type": "Point", "coordinates": [ 10.0156215, 53.5787203 ] } },
{ "type": "Feature", "properties": { "osm_id": "3948209803", "code": 2120, "fclass": "doctors", "name": "Dr. med. Gisela Praetorius" }, "geometry": { "type": "Point", "coordinates": [ 10.0141992, 53.5790558 ] } },
{ "type": "Feature", "properties": { "osm_id": "3948291350", "code": 2120, "fclass": "doctors", "name": "Jörg-Rüdiger Kröhn" }, "geometry": { "type": "Point", "coordinates": [ 10.014196, 53.5790498 ] } },
{ "type": "Feature", "properties": { "osm_id": "3954261595", "code": 2120, "fclass": "doctors", "name": "Familienzentrum Nord" }, "geometry": { "type": "Point", "coordinates": [ 10.0010303, 53.6807684 ] } },
{ "type": "Feature", "properties": { "osm_id": "3984383850", "code": 2120, "fclass": "doctors", "name": "Tibor Schmoller \/ Martin Ehlers" }, "geometry": { "type": "Point", "coordinates": [ 10.0027705, 53.5906798 ] } },
{ "type": "Feature", "properties": { "osm_id": "3999515167", "code": 2120, "fclass": "doctors", "name": "Birgit Blüthmann" }, "geometry": { "type": "Point", "coordinates": [ 9.8469114, 53.5724613 ] } },
{ "type": "Feature", "properties": { "osm_id": "3999515168", "code": 2120, "fclass": "doctors", "name": "orthoGroup" }, "geometry": { "type": "Point", "coordinates": [ 9.8469121, 53.5724515 ] } },
{ "type": "Feature", "properties": { "osm_id": "3999515169", "code": 2120, "fclass": "doctors", "name": "Dr. med. Daniela Kasche" }, "geometry": { "type": "Point", "coordinates": [ 9.8469111, 53.5724702 ] } },
{ "type": "Feature", "properties": { "osm_id": "3999515170", "code": 2120, "fclass": "doctors", "name": "Robert Heinz Koch, Praktischer Arzt" }, "geometry": { "type": "Point", "coordinates": [ 9.8469131, 53.57244 ] } },
{ "type": "Feature", "properties": { "osm_id": "4007586095", "code": 2120, "fclass": "doctors", "name": "Institut für Epithetik" }, "geometry": { "type": "Point", "coordinates": [ 9.9983195, 53.6836459 ] } },
{ "type": "Feature", "properties": { "osm_id": "4007630993", "code": 2120, "fclass": "doctors", "name": "Praxis für Physiotherapie und Osteopathie" }, "geometry": { "type": "Point", "coordinates": [ 9.9984162, 53.6858648 ] } },
{ "type": "Feature", "properties": { "osm_id": "4026614208", "code": 2120, "fclass": "doctors", "name": "Radiologische Allianz Speersort" }, "geometry": { "type": "Point", "coordinates": [ 9.9984122, 53.5501088 ] } },
{ "type": "Feature", "properties": { "osm_id": "4028882719", "code": 2120, "fclass": "doctors", "name": "Azar\/Dr. Steinke" }, "geometry": { "type": "Point", "coordinates": [ 10.0625462, 53.5809308 ] } },
{ "type": "Feature", "properties": { "osm_id": "4028973329", "code": 2120, "fclass": "doctors", "name": "Jürgen Klug" }, "geometry": { "type": "Point", "coordinates": [ 10.0675283, 53.5819759 ] } },
{ "type": "Feature", "properties": { "osm_id": "4028988151", "code": 2120, "fclass": "doctors", "name": "Praxis Tsiaprazis" }, "geometry": { "type": "Point", "coordinates": [ 10.0631811, 53.581905 ] } },
{ "type": "Feature", "properties": { "osm_id": "4039178794", "code": 2120, "fclass": "doctors", "name": "Sedef Yilmaz" }, "geometry": { "type": "Point", "coordinates": [ 10.0671568, 53.5839009 ] } },
{ "type": "Feature", "properties": { "osm_id": "4060442670", "code": 2120, "fclass": "doctors", "name": "Akupressurpraxis Wang" }, "geometry": { "type": "Point", "coordinates": [ 9.9872297, 53.6855763 ] } },
{ "type": "Feature", "properties": { "osm_id": "4071695391", "code": 2120, "fclass": "doctors", "name": "Graciana Martha Bork" }, "geometry": { "type": "Point", "coordinates": [ 10.1203869, 53.5626448 ] } },
{ "type": "Feature", "properties": { "osm_id": "4092142654", "code": 2120, "fclass": "doctors", "name": "Dr.med. Rudolf Biergiesser" }, "geometry": { "type": "Point", "coordinates": [ 10.1070437, 53.5592391 ] } },
{ "type": "Feature", "properties": { "osm_id": "4100010965", "code": 2120, "fclass": "doctors", "name": "Victoria Yar" }, "geometry": { "type": "Point", "coordinates": [ 10.0422842, 53.5892941 ] } },
{ "type": "Feature", "properties": { "osm_id": "4103059626", "code": 2120, "fclass": "doctors", "name": "Lichte & Kalugina" }, "geometry": { "type": "Point", "coordinates": [ 10.0640834, 53.5818788 ] } },
{ "type": "Feature", "properties": { "osm_id": "4134326350", "code": 2120, "fclass": "doctors", "name": "MVZ Elbe West" }, "geometry": { "type": "Point", "coordinates": [ 9.8472668, 53.5748433 ] } },
{ "type": "Feature", "properties": { "osm_id": "4144366156", "code": 2120, "fclass": "doctors", "name": "Dr. Vosghanian-Pekajeky Allgemein Medizin" }, "geometry": { "type": "Point", "coordinates": [ 9.9859736, 53.4566581 ] } },
{ "type": "Feature", "properties": { "osm_id": "4168183875", "code": 2120, "fclass": "doctors", "name": "Dr. Hajnis Augenarzt" }, "geometry": { "type": "Point", "coordinates": [ 9.9871136, 53.4568734 ] } },
{ "type": "Feature", "properties": { "osm_id": "4168183877", "code": 2120, "fclass": "doctors", "name": "Dr. Silvia Darida" }, "geometry": { "type": "Point", "coordinates": [ 9.9864555, 53.4567656 ] } },
{ "type": "Feature", "properties": { "osm_id": "4168183878", "code": 2120, "fclass": "doctors", "name": "MKG-Praxis Phoenixcenter" }, "geometry": { "type": "Point", "coordinates": [ 9.9873408, 53.4569068 ] } },
{ "type": "Feature", "properties": { "osm_id": "4168183879", "code": 2120, "fclass": "doctors", "name": "Linsen Joseph" }, "geometry": { "type": "Point", "coordinates": [ 9.9862493, 53.4567349 ] } },
{ "type": "Feature", "properties": { "osm_id": "4168200194", "code": 2120, "fclass": "doctors", "name": "Radiologische Allianz" }, "geometry": { "type": "Point", "coordinates": [ 9.9872308, 53.4568907 ] } },
{ "type": "Feature", "properties": { "osm_id": "4200053205", "code": 2120, "fclass": "doctors", "name": "Klaus Togler" }, "geometry": { "type": "Point", "coordinates": [ 10.0414823, 53.584589 ] } },
{ "type": "Feature", "properties": { "osm_id": "4239152637", "code": 2120, "fclass": "doctors", "name": "Barbara Kirschbaum" }, "geometry": { "type": "Point", "coordinates": [ 9.9776579, 53.5768638 ] } },
{ "type": "Feature", "properties": { "osm_id": "4239152641", "code": 2120, "fclass": "doctors", "name": "Gemeinschaftspraxis Walbaum, Mohrmann" }, "geometry": { "type": "Point", "coordinates": [ 9.9775721, 53.5770361 ] } },
{ "type": "Feature", "properties": { "osm_id": "4258959410", "code": 2120, "fclass": "doctors", "name": "Praxis am Grindel" }, "geometry": { "type": "Point", "coordinates": [ 9.9768808, 53.5744993 ] } },
{ "type": "Feature", "properties": { "osm_id": "4258968638", "code": 2120, "fclass": "doctors", "name": "Doc Brock" }, "geometry": { "type": "Point", "coordinates": [ 9.9768809, 53.5744676 ] } },
{ "type": "Feature", "properties": { "osm_id": "4259409020", "code": 2120, "fclass": "doctors", "name": "UHC am Grindel" }, "geometry": { "type": "Point", "coordinates": [ 9.976944, 53.5744198 ] } },
{ "type": "Feature", "properties": { "osm_id": "4259429066", "code": 2120, "fclass": "doctors", "name": "Ergotherapie am Grindel" }, "geometry": { "type": "Point", "coordinates": [ 9.976938, 53.5744814 ] } },
{ "type": "Feature", "properties": { "osm_id": "4259432377", "code": 2120, "fclass": "doctors", "name": "Praxis für Physiotherapie" }, "geometry": { "type": "Point", "coordinates": [ 9.97694, 53.5744534 ] } },
{ "type": "Feature", "properties": { "osm_id": "4271854560", "code": 2120, "fclass": "doctors", "name": "Kinderarzt Dr. Uhlig & Kollegen" }, "geometry": { "type": "Point", "coordinates": [ 9.9766271, 53.5736666 ] } },
{ "type": "Feature", "properties": { "osm_id": "4290959970", "code": 2120, "fclass": "doctors", "name": "Allgemeinmedizinische Gemeinschaftspraxis Galler Thorsen" }, "geometry": { "type": "Point", "coordinates": [ 10.0015447, 53.606411 ] } },
{ "type": "Feature", "properties": { "osm_id": "4316267091", "code": 2120, "fclass": "doctors", "name": "Stanislaw Nawka" }, "geometry": { "type": "Point", "coordinates": [ 10.1228285, 53.6725162 ] } },
{ "type": "Feature", "properties": { "osm_id": "4362103497", "code": 2120, "fclass": "doctors", "name": "Redensart, Logopädische Praxis" }, "geometry": { "type": "Point", "coordinates": [ 10.1151619, 53.624857 ] } },
{ "type": "Feature", "properties": { "osm_id": "4362103499", "code": 2120, "fclass": "doctors", "name": "funktio training, Praxis für Prävention, Bewegung und Gesundheit" }, "geometry": { "type": "Point", "coordinates": [ 10.1149187, 53.6248152 ] } },
{ "type": "Feature", "properties": { "osm_id": "4367738553", "code": 2120, "fclass": "doctors", "name": "Dr. med. Anja-Maria Nietfeld" }, "geometry": { "type": "Point", "coordinates": [ 9.9923818, 53.5888483 ] } },
{ "type": "Feature", "properties": { "osm_id": "4377983768", "code": 2120, "fclass": "doctors", "name": "Augenärzte" }, "geometry": { "type": "Point", "coordinates": [ 10.015758, 53.6477575 ] } },
{ "type": "Feature", "properties": { "osm_id": "4425322290", "code": 2120, "fclass": "doctors", "name": "KORU Physiotherapie" }, "geometry": { "type": "Point", "coordinates": [ 10.0897263, 53.6422948 ] } },
{ "type": "Feature", "properties": { "osm_id": "4425696946", "code": 2120, "fclass": "doctors", "name": "Asklepios Gesundheitszentrum Ulmenhof" }, "geometry": { "type": "Point", "coordinates": [ 10.0024049, 53.5948845 ] } },
{ "type": "Feature", "properties": { "osm_id": "4440828817", "code": 2120, "fclass": "doctors", "name": "Sinologicum" }, "geometry": { "type": "Point", "coordinates": [ 9.9851591, 53.5728975 ] } },
{ "type": "Feature", "properties": { "osm_id": "4450166927", "code": 2120, "fclass": "doctors", "name": "Frauenarztpraxis Dr. med. Rudolf Buck" }, "geometry": { "type": "Point", "coordinates": [ 9.9842362, 53.6830778 ] } },
{ "type": "Feature", "properties": { "osm_id": "4455282452", "code": 2120, "fclass": "doctors", "name": "Arthro-Clinic" }, "geometry": { "type": "Point", "coordinates": [ 10.1555577, 53.6050179 ] } },
{ "type": "Feature", "properties": { "osm_id": "4456959590", "code": 2120, "fclass": "doctors", "name": "Praxis Forster & Team" }, "geometry": { "type": "Point", "coordinates": [ 10.0001492, 53.5512924 ] } },
{ "type": "Feature", "properties": { "osm_id": "4483849937", "code": 2120, "fclass": "doctors", "name": "Gisela Werner" }, "geometry": { "type": "Point", "coordinates": [ 10.0191881, 53.5843663 ] } },
{ "type": "Feature", "properties": { "osm_id": "4490737081", "code": 2120, "fclass": "doctors", "name": "Abdul Ghafoor Bawar" }, "geometry": { "type": "Point", "coordinates": [ 10.0443096, 53.5910143 ] } },
{ "type": "Feature", "properties": { "osm_id": "4506423252", "code": 2120, "fclass": "doctors", "name": "Ärztehaus" }, "geometry": { "type": "Point", "coordinates": [ 9.7048795, 53.5777841 ] } },
{ "type": "Feature", "properties": { "osm_id": "4513881981", "code": 2120, "fclass": "doctors", "name": "Dr. Annette Braune" }, "geometry": { "type": "Point", "coordinates": [ 9.7054127, 53.5768847 ] } },
{ "type": "Feature", "properties": { "osm_id": "4513881987", "code": 2120, "fclass": "doctors", "name": "Klaus Mergemeier" }, "geometry": { "type": "Point", "coordinates": [ 9.7057091, 53.5776042 ] } },
{ "type": "Feature", "properties": { "osm_id": "4513882197", "code": 2120, "fclass": "doctors", "name": null }, "geometry": { "type": "Point", "coordinates": [ 9.7053838, 53.5770737 ] } },
{ "type": "Feature", "properties": { "osm_id": "4513882198", "code": 2120, "fclass": "doctors", "name": null }, "geometry": { "type": "Point", "coordinates": [ 9.7055887, 53.5772245 ] } },
{ "type": "Feature", "properties": { "osm_id": "4524954504", "code": 2120, "fclass": "doctors", "name": "Dr. Si Fu" }, "geometry": { "type": "Point", "coordinates": [ 10.003682, 53.5419642 ] } },
{ "type": "Feature", "properties": { "osm_id": "4535036166", "code": 2120, "fclass": "doctors", "name": "Augenarzt M. Tange" }, "geometry": { "type": "Point", "coordinates": [ 10.0913414, 53.6533362 ] } },
{ "type": "Feature", "properties": { "osm_id": "4535036167", "code": 2120, "fclass": "doctors", "name": "Kinder- und Jugendmediziner Dr. Drunkenmölle" }, "geometry": { "type": "Point", "coordinates": [ 10.092048, 53.6531841 ] } },
{ "type": "Feature", "properties": { "osm_id": "4547209925", "code": 2120, "fclass": "doctors", "name": "Podologische Praxis" }, "geometry": { "type": "Point", "coordinates": [ 10.0482616, 53.5587965 ] } },
{ "type": "Feature", "properties": { "osm_id": "4548669815", "code": 2120, "fclass": "doctors", "name": "Kinderarzt" }, "geometry": { "type": "Point", "coordinates": [ 9.8461336, 53.5724665 ] } },
{ "type": "Feature", "properties": { "osm_id": "4549763015", "code": 2120, "fclass": "doctors", "name": "M.D. Abdullah Roon" }, "geometry": { "type": "Point", "coordinates": [ 10.05104, 53.5577668 ] } },
{ "type": "Feature", "properties": { "osm_id": "4585504194", "code": 2120, "fclass": "doctors", "name": "Praxis Wirkner-Thiel" }, "geometry": { "type": "Point", "coordinates": [ 10.0966096, 53.5687912 ] } },
{ "type": "Feature", "properties": { "osm_id": "4608334149", "code": 2120, "fclass": "doctors", "name": "Hausarztpraxis Barmbek" }, "geometry": { "type": "Point", "coordinates": [ 10.05025, 53.5932017 ] } },
{ "type": "Feature", "properties": { "osm_id": "4608383026", "code": 2120, "fclass": "doctors", "name": "Praxis Andrea Moritz & Kollegen" }, "geometry": { "type": "Point", "coordinates": [ 10.0437066, 53.603826 ] } },
{ "type": "Feature", "properties": { "osm_id": "4633636865", "code": 2120, "fclass": "doctors", "name": "Arztpraxis Dr. Ebert" }, "geometry": { "type": "Point", "coordinates": [ 10.137705, 53.6078431 ] } },
{ "type": "Feature", "properties": { "osm_id": "4643432146", "code": 2120, "fclass": "doctors", "name": "Poliklinik Veddel" }, "geometry": { "type": "Point", "coordinates": [ 10.0176126, 53.5232556 ] } },
{ "type": "Feature", "properties": { "osm_id": "4669700267", "code": 2120, "fclass": "doctors", "name": "Hausarztpraxis Maas\/Raut\/van der Kamp" }, "geometry": { "type": "Point", "coordinates": [ 9.9653332, 53.5655157 ] } },
{ "type": "Feature", "properties": { "osm_id": "4692972777", "code": 2120, "fclass": "doctors", "name": null }, "geometry": { "type": "Point", "coordinates": [ 9.858674, 53.5703937 ] } },
{ "type": "Feature", "properties": { "osm_id": "4703491038", "code": 2120, "fclass": "doctors", "name": "Allgemeinarzt" }, "geometry": { "type": "Point", "coordinates": [ 10.1760133, 53.4062146 ] } },
{ "type": "Feature", "properties": { "osm_id": "4706293289", "code": 2120, "fclass": "doctors", "name": "Dr. med. Michael Hoff" }, "geometry": { "type": "Point", "coordinates": [ 9.9314182, 53.5519884 ] } },
{ "type": "Feature", "properties": { "osm_id": "4707981500", "code": 2120, "fclass": "doctors", "name": "Dr. med. Günter Kroll, Augenarzt" }, "geometry": { "type": "Point", "coordinates": [ 9.8286161, 53.5937446 ] } },
{ "type": "Feature", "properties": { "osm_id": "4723316836", "code": 2120, "fclass": "doctors", "name": "Martin Bähr" }, "geometry": { "type": "Point", "coordinates": [ 10.040657, 53.6049076 ] } },
{ "type": "Feature", "properties": { "osm_id": "4814017922", "code": 2120, "fclass": "doctors", "name": "Haut- und Venenpraxis Winterhude" }, "geometry": { "type": "Point", "coordinates": [ 10.0007418, 53.5945264 ] } },
{ "type": "Feature", "properties": { "osm_id": "4850052913", "code": 2120, "fclass": "doctors", "name": "Arztpraxis Dr. med. Karin Reinhard" }, "geometry": { "type": "Point", "coordinates": [ 9.9323831, 53.5956307 ] } },
{ "type": "Feature", "properties": { "osm_id": "4854233187", "code": 2120, "fclass": "doctors", "name": "Augentagesklinik" }, "geometry": { "type": "Point", "coordinates": [ 10.1634423, 53.6485122 ] } },
{ "type": "Feature", "properties": { "osm_id": "4964205230", "code": 2120, "fclass": "doctors", "name": "Dr. Eva Nast - ganzheitliche Frauenheilkunde" }, "geometry": { "type": "Point", "coordinates": [ 10.1685187, 53.6466251 ] } },
{ "type": "Feature", "properties": { "osm_id": "4966380616", "code": 2120, "fclass": "doctors", "name": "Karl Robert Schirmer" }, "geometry": { "type": "Point", "coordinates": [ 10.0903455, 53.554048 ] } },
{ "type": "Feature", "properties": { "osm_id": "5005795488", "code": 2120, "fclass": "doctors", "name": "Nikolaus Behr" }, "geometry": { "type": "Point", "coordinates": [ 10.0457362, 53.5912828 ] } },
{ "type": "Feature", "properties": { "osm_id": "5036951921", "code": 2120, "fclass": "doctors", "name": "Augenarzt Dr. med. Jens Jantke" }, "geometry": { "type": "Point", "coordinates": [ 10.0496095, 53.5873052 ] } },
{ "type": "Feature", "properties": { "osm_id": "5057044921", "code": 2120, "fclass": "doctors", "name": "Ärztehaus" }, "geometry": { "type": "Point", "coordinates": [ 9.9856335, 53.5876077 ] } },
{ "type": "Feature", "properties": { "osm_id": "5073948448", "code": 2120, "fclass": "doctors", "name": "MVZ Psychiatrie, Psychotherapie, Suchtmedizin" }, "geometry": { "type": "Point", "coordinates": [ 10.1547401, 53.6058509 ] } },
{ "type": "Feature", "properties": { "osm_id": "5107419800", "code": 2120, "fclass": "doctors", "name": "Cardiologicum" }, "geometry": { "type": "Point", "coordinates": [ 10.158125, 53.6054088 ] } },
{ "type": "Feature", "properties": { "osm_id": "5115529795", "code": 2120, "fclass": "doctors", "name": "Dr. med. Bettina Marks, Fachärztin für Allgemeinmedizin" }, "geometry": { "type": "Point", "coordinates": [ 9.8113422, 53.5212166 ] } },
{ "type": "Feature", "properties": { "osm_id": "5119907921", "code": 2120, "fclass": "doctors", "name": "Zentrum für Diabetologie Bergedorf" }, "geometry": { "type": "Point", "coordinates": [ 10.2373917, 53.4855468 ] } },
{ "type": "Feature", "properties": { "osm_id": "5139204044", "code": 2120, "fclass": "doctors", "name": "MVZ Elbe-West" }, "geometry": { "type": "Point", "coordinates": [ 9.8544306, 53.5574015 ] } },
{ "type": "Feature", "properties": { "osm_id": "5168626620", "code": 2120, "fclass": "doctors", "name": "Dr. med. K. von Alt-Stutterheim" }, "geometry": { "type": "Point", "coordinates": [ 10.0830216, 53.6403642 ] } },
{ "type": "Feature", "properties": { "osm_id": "5185320721", "code": 2120, "fclass": "doctors", "name": "Lungenpraxis Norderstedt" }, "geometry": { "type": "Point", "coordinates": [ 9.998359, 53.684207 ] } },
{ "type": "Feature", "properties": { "osm_id": "5219843101", "code": 2120, "fclass": "doctors", "name": "Praxis Gottschalk" }, "geometry": { "type": "Point", "coordinates": [ 10.0391036, 53.5774235 ] } },
{ "type": "Feature", "properties": { "osm_id": "5247494310", "code": 2120, "fclass": "doctors", "name": "HNO Praxi" }, "geometry": { "type": "Point", "coordinates": [ 10.2077851, 53.489632 ] } },
{ "type": "Feature", "properties": { "osm_id": "5248120755", "code": 2120, "fclass": "doctors", "name": "Dr. Thalmann Allgemeinmedizin" }, "geometry": { "type": "Point", "coordinates": [ 9.9862619, 53.4566798 ] } },
{ "type": "Feature", "properties": { "osm_id": "5248120758", "code": 2120, "fclass": "doctors", "name": "HNO-Praxis Phoenixcenter" }, "geometry": { "type": "Point", "coordinates": [ 9.9880917, 53.4570169 ] } },
{ "type": "Feature", "properties": { "osm_id": "5248648435", "code": 2120, "fclass": "doctors", "name": "Notaufnahme Kinder-UKE" }, "geometry": { "type": "Point", "coordinates": [ 9.9800639, 53.5910525 ] } },
{ "type": "Feature", "properties": { "osm_id": "5323676447", "code": 2120, "fclass": "doctors", "name": "Dr. med. Jens W. Stadtmüller" }, "geometry": { "type": "Point", "coordinates": [ 10.1067105, 53.5395499 ] } },
{ "type": "Feature", "properties": { "osm_id": "5323676448", "code": 2120, "fclass": "doctors", "name": "Dr. med. Werner Frank" }, "geometry": { "type": "Point", "coordinates": [ 10.1067025, 53.539538 ] } },
{ "type": "Feature", "properties": { "osm_id": "5323683180", "code": 2120, "fclass": "doctors", "name": "Orthopädische Zentrum Billstedt" }, "geometry": { "type": "Point", "coordinates": [ 10.1067125, 53.5395448 ] } },
{ "type": "Feature", "properties": { "osm_id": "5325730972", "code": 2120, "fclass": "doctors", "name": "Augenärztliche Praxisklinik am Tierpark" }, "geometry": { "type": "Point", "coordinates": [ 9.9464584, 53.5951557 ] } },
{ "type": "Feature", "properties": { "osm_id": "5351330288", "code": 2120, "fclass": "doctors", "name": "Ärztehaus" }, "geometry": { "type": "Point", "coordinates": [ 9.9336454, 53.5791685 ] } },
{ "type": "Feature", "properties": { "osm_id": "5351377345", "code": 2120, "fclass": "doctors", "name": "Hausärztin" }, "geometry": { "type": "Point", "coordinates": [ 9.9453417, 53.5765174 ] } },
{ "type": "Feature", "properties": { "osm_id": "5373210102", "code": 2120, "fclass": "doctors", "name": "Dr. med. Ahmet Kayacik" }, "geometry": { "type": "Point", "coordinates": [ 10.0586747, 53.584434 ] } },
{ "type": "Feature", "properties": { "osm_id": "5413741049", "code": 2120, "fclass": "doctors", "name": "Gemeinschaftspraxis für Frauenheilkunde und Geburtshilfe und Ernährungsberatung" }, "geometry": { "type": "Point", "coordinates": [ 9.9544422, 53.5819251 ] } },
{ "type": "Feature", "properties": { "osm_id": "5466544661", "code": 2120, "fclass": "doctors", "name": "Gynäkologikum Bergedorf" }, "geometry": { "type": "Point", "coordinates": [ 10.2096931, 53.4900143 ] } },
{ "type": "Feature", "properties": { "osm_id": "5471018432", "code": 2120, "fclass": "doctors", "name": "Naturheilpraxis Bergedorf HP Martina Roth" }, "geometry": { "type": "Point", "coordinates": [ 10.210402, 53.4859434 ] } },
{ "type": "Feature", "properties": { "osm_id": "5549839117", "code": 2120, "fclass": "doctors", "name": "Dr. med. Jan Wiegand-Dreßler" }, "geometry": { "type": "Point", "coordinates": [ 10.1638317, 53.6486369 ] } },
{ "type": "Feature", "properties": { "osm_id": "5588294233", "code": 2120, "fclass": "doctors", "name": "Gemeinschaftspraxis Knudsen & Finger" }, "geometry": { "type": "Point", "coordinates": [ 9.7991495, 53.4664529 ] } },
{ "type": "Feature", "properties": { "osm_id": "5589201005", "code": 2120, "fclass": "doctors", "name": null }, "geometry": { "type": "Point", "coordinates": [ 9.8636363, 53.5723658 ] } },
{ "type": "Feature", "properties": { "osm_id": "5616985413", "code": 2120, "fclass": "doctors", "name": "Orthopäden im Alstertal" }, "geometry": { "type": "Point", "coordinates": [ 10.0933122, 53.6531931 ] } },
{ "type": "Feature", "properties": { "osm_id": "5625129721", "code": 2120, "fclass": "doctors", "name": "Dr. Kurtze (Kinderarzt)" }, "geometry": { "type": "Point", "coordinates": [ 10.1092894, 53.7073974 ] } },
{ "type": "Feature", "properties": { "osm_id": "5626557021", "code": 2120, "fclass": "doctors", "name": "Dr. Anne-Marei Kressel" }, "geometry": { "type": "Point", "coordinates": [ 10.0182534, 53.6403922 ] } },
{ "type": "Feature", "properties": { "osm_id": "5626998395", "code": 2120, "fclass": "doctors", "name": "Hausarztpraxis Herrero Schmidt" }, "geometry": { "type": "Point", "coordinates": [ 9.9552316, 53.6330695 ] } },
{ "type": "Feature", "properties": { "osm_id": "5653374522", "code": 2120, "fclass": "doctors", "name": "Hillenbrand und Heilscher" }, "geometry": { "type": "Point", "coordinates": [ 9.7999486, 53.4644588 ] } },
{ "type": "Feature", "properties": { "osm_id": "5693488338", "code": 2120, "fclass": "doctors", "name": "Kieferchirurg Dr. Zieron" }, "geometry": { "type": "Point", "coordinates": [ 10.2151927, 53.4874723 ] } },
{ "type": "Feature", "properties": { "osm_id": "5726047967", "code": 2120, "fclass": "doctors", "name": "Dr. Schroeter" }, "geometry": { "type": "Point", "coordinates": [ 10.0797603, 53.54943 ] } },
{ "type": "Feature", "properties": { "osm_id": "5732426519", "code": 2120, "fclass": "doctors", "name": "Medizinisches Versorgungszentrum Neu Wulmstorf" }, "geometry": { "type": "Point", "coordinates": [ 9.7937228, 53.4661834 ] } },
{ "type": "Feature", "properties": { "osm_id": "5744179475", "code": 2120, "fclass": "doctors", "name": "Qassem Mohammad" }, "geometry": { "type": "Point", "coordinates": [ 10.1065666, 53.5419192 ] } },